facility_name,facility_code,facility_type,facility_ownership,latitude,longitude,admin1,status
A+A,MC010002,Clinic,Private,-13.797421,33.885631,Centrals West Zone,Functional
A.C Opticals,BT240003,Clinic,Private,-15.8,35.03,South East Zone,Functional
A-C Opticals,MZ160004,Clinic,Mission/Faith-based (other than CHAM),NA,NA,North Zone,Non-functional
Akwezeke Pvt,BT240005,Clinic,Private,-15.84,35.09,South East Zone,Functional
Abowa,BT240006,Clinic,Private,-15.84,35.09,South East Zone,Functional
ABC Clinic,LL040007,Hospital,Christian Health Association of Malawi (CHAM),-13.96816,33.74129,Centrals West Zone,Functional
AC Opticals Lilongwe Shopping,LL040008,Dispensary,Private,NA,NA,Centrals West Zone,Functional
AC Opticals Old Town,LL040009,Dispensary,Private,NA,NA,Centrals West Zone,Functional
Achikondi,LL040010,Dispensary,Private,-13.95473,33.7793,Centrals West Zone,Functional
Adventist Health Centre,LL040011,Hospital,Christian Health Association of Malawi (CHAM),-13.95473,33.7793,Centrals West Zone,Functional
Adventist,LL040012,Health Centre,Christian Health Association of Malawi (CHAM),-13.95473,33.7793,Centrals West Zone,Functional
Africa Leaf Clinic Kanengo,LL040013,Clinic,Private,-13.8898,33.80487,Centrals West Zone,Non-functional
AHI,ZA230014,Clinic,Private,-15.38361,35.3223,South West Zone,Functional
Airwing,ZA230015,Clinic,Government,-15.38876,35.38508,South West Zone,Functional
Airwing,LL040016,Dispensary,Government,-13.96162,33.69679,Centrals West Zone,Functional
Akalole Clinic,NT120017,Clinic,Mission/Faith-based (other than CHAM),-14.511149,34.460536,Centrals West Zone,Non-functional
Akasale,CR260018,Hospital,Private,-15.7594487,35.1148531,South East Zone,Functional
Alinafe,NK100019,Hospital,Christian Health Association of Malawi (CHAM),-13.38789,34.24292,Central East Zone,Functional
Alinafe,MC190020,Clinic,Private,-14.79853,35.44326,South West Zone,Non-functional
Alinafe Private Clinic,MG200021,Clinic,Private,-14.4790606,35.2574859,South West Zone,Functional
Alinafe Private Clinic,MC010022,Clinic,Private,-13.83069,33.04117,Centrals West Zone,Functional
Alliance one Clinic,LL040023,Clinic,Private,-13.89571,33.80108,Centrals West Zone,Functional
Alumenda Estate Clinic,CK270024,Clinic,Mission/Faith-based (other than CHAM),-15.3947344,34.653817,South East Zone,Non-functional
Alumenda,CK270025,Health Centre,Private,-16.403467,34.885647,South East Zone,Functional
Amalika,TH310026,Dispensary,Government,-15.99203,35.03183,South East Zone,Functional
Amazing,SA090027,Clinic,Private,-13.330111,NA,Central East Zone,Non-functional
AMECA (Chilaweni),BT240028,Clinic,Government,-15.703336,35.04442,South East Zone,Functional
Amitofo,BT240029,Health Centre,Non-Government,NA,NA,South East Zone,Functional
Anchor Farm,KU070030,Health Centre,Government,-13.41,33.39,Central East Zone,Functional
Anchor Health Centre,KU070031,Health Centre,Government,-13.414103,33.39074,Central East Zone,Functional
Aquid Lifeline Clinic,BT240032,Clinic,Non-Government,-15.62217,35.05604,South East Zone,Functional
Area 18,LL040033,Health Centre,Government,-13.94131,33.78051,Centrals West Zone,Functional
Area 18 Medi clinic,LL040034,Clinic,Private,-13.94454,33.77083,Centrals West Zone,Functional
Area 24 Private Clinic,LL040035,Clinic,Private,-14.0205,33.79967,Centrals West Zone,Non-functional
Banja la mtsogolo,LL040036,Unclassified,Non-Government,-13.89488,33.76206,Centrals West Zone,Functional
Area 25,LL040037,Health Centre,Government,-13.89272,33.77465,Centrals West Zone,Functional
Area 30 clinic,LL040038,Clinic,Other,-13.9279,33.78419,Centrals West Zone,Functional
Area 36 Living Waters,LL040039,Dispensary,Private,-14.0119727,33.7787036,Centrals West Zone,Functional
Army,LK180040,Dispensary,Other,-12.08098,34.731191,North Zone,Non-functional
Chitekwe,BT240041,Health Centre,Private,-15.84,35.09,South East Zone,Functional
Asante Private Clinic,SA090042,Clinic,Private,-13.77065,34.44174,Central East Zone,Functional
Asimec,NT080043,Clinic,Private,-13.3587,33.91619,Central East Zone,Functional
Chakunyanja,KB050044,Clinic,Private,-11.61,34.3,North Zone,Functional
As-slam clinic,MG200045,Clinic,Other,-14.54537,35.19221,South West Zone,Functional
Atupele,KA150046,Hospital,Christian Health Association of Malawi (CHAM),-9.73682,33.83744,North Zone,Functional
Atupele Pvt Clinic,MG200047,Dispensary,Private,NA,NA,South West Zone,Functional
Auction Holdings Clinic,BT240048,Clinic,Private,-15.81195,35.06417,South East Zone,Functional
Auction,MZ160049,Clinic,Private,-11.46341,34.02053,North Zone,Non-functional
Auction Holdings Clinic,LL040050,Dispensary,Parastatal,-13.89089,33.79952,Centrals West Zone,Functional
Ayali Private Clinic,BT240051,Clinic,Private,-15.66,35.02,South East Zone,Functional
Balaka Banja La Mtsogolo clinic,BK170052,Clinic,Non-Government,-14.98876,34.95557,South West Zone,Functional
Balaka District Hospital,BK170053,District Hospital,Government,-14.98498,34.94959,South West Zone,Functional
Dream Clinic,BK170054,Clinic,Christian Health Association of Malawi (CHAM),-15.00322,34.95248,South West Zone,Functional
Balaka Private Clinic,BK170055,Clinic,Private,-14.98339,34.9617,South West Zone,Functional
Bamusi Post,MG200056,Health Post,Government,NA,NA,South West Zone,Functional
Maziko,LL040057,Clinic,Mission/Faith-based (other than CHAM),-14.00507,33.81629,Centrals West Zone,Non-functional
Bangwe BLM,BT240058,Clinic,Non-Government,NA,NA,South East Zone,Functional
Bangwe,BT240059,Health Centre,Government,-15.823832,35.080477,South East Zone,Functional
BLM,KB050060,Clinic,Private,-11.609069999999999,34.29899,North Zone,Closed
Banja Care Clinic,BT240061,Clinic,Private,-16.01,35.49,South East Zone,Functional
Banja la Mtsogolo,CP060062,Clinic,Non-Government,-15.3890539,35.320048,North Zone,Functional
Banzi,BT240063,Health Centre,Private,NA,NA,South East Zone,Functional
Baptist health centre,SA090064,Health Centre,Christian Health Association of Malawi (CHAM),-13.73887,34.59749,Central East Zone,Functional
Bayani,NT120065,Health Post,Government,-15.1729008,34.6966684,Centrals West Zone,Functional
Baylor,LL040066,Clinic,Non-Government,-13.977985,33.786847,Centrals West Zone,Functional
BB Clinic,DE030067,Clinic,Mission/Faith-based (other than CHAM),-14.3874968,34.3291278,Centrals West Zone,Non-functional
Beit Cure,BT240068,Hospital,Non-Government,-15.80354,35.01753,South East Zone,Functional
Bereu,CK270069,Dispensary,Government,-16.15199,34.85376,South East Zone,Functional
Bello,CK270070,Dispensary,Private,-16.26044,34.86844,South East Zone,Functional
Belton Kapyepye Memorial Clini,BT240071,Clinic,Private,-15.80869,34.99434,South East Zone,Functional
Bembeke,DE030072,Health Centre,Christian Health Association of Malawi (CHAM),-14.35825,34.42432,Centrals West Zone,Functional
Chipatala cha boma,NK100073,Health Centre,Government,-13.36846,34.27404,Central East Zone,Functional
Kachale,BT240074,Clinic,Private,-15.78018,35.07352,South East Zone,Functional
Bethesda,TH310075,Clinic,Private,-16.01,35.31,South East Zone,Non-functional
Bethsaida,NK100076,Clinic,Private,-12.846881,34.245704,Central East Zone,Functional
Bethsaida,LL040077,Hospital,Private,-13.93387,33.79202,Centrals West Zone,Functional
BKM PVT Clinic,BT240078,Clinic,Private,-15.78826,35.00554,South East Zone,Functional
Bilal islamic,CR260079,Hospital,Private,-15.7414865,35.1304713,South East Zone,Functional
Bilila,NT120080,Health Centre,Government,-14.82489,34.85134,Centrals West Zone,Functional
Biliwiri,NT120081,Health Centre,Government,-14.817,34.638306,Centrals West Zone,Functional
Billy Riordan clinic,MG200082,Clinic,Non-Government,-14.0319916,34.8402186,South West Zone,Functional
Bimbi,ZA230083,Health Centre,Government,-15.30876,35.4794,South West Zone,Functional
Blantyre Adventist Hospital,BT240084,Hospital,Private,-15.7824,35.0031,South East Zone,Functional
City assembly,BT240085,Clinic,Government,-15.8,35.04,South East Zone,Functional
Blantyre DHO Pharmarcy,BT240086,Clinic,Government,NA,NA,South East Zone,Functional
Blantyre Dream Project (Mandala),BT240087,Health Centre,Non-Government,-15.79182,35.01273,South East Zone,Functional
Makadam Pvt Clinic,BT240088,Clinic,Private,-15.786933,35.007778,South East Zone,Functional
Blantyre Water Board - Mudi,BT240089,Clinic,Other,-15.7953,35.03811,South East Zone,Functional
Waterboard Clinic-Mudi,BT240090,Unclassified,Private,-15,33,South East Zone,Functional
Blessings,LL040091,Hospital,Mission/Faith-based (other than CHAM),-13.79099,33.81707,Centrals West Zone,Functional
Bliss,SA090092,Dispensary,Private,-13.78929,34.46206,Central East Zone,Functional
Banja la mtsogolo,TH310093,Clinic,Non-Government,-15.93133,35.08213,South East Zone,Functional
Banja la mtsogolo,LL040094,Clinic,Non-Government,-13.99646,33.77897,Centrals West Zone,Functional
Kawale Banja la mtsogolo,LL040095,Clinic,Non-Government,-13.9915,33.79514,Centrals West Zone,Functional
Banja la Mtsongolo,MC190096,Clinic,Non-Government,-15.0694,35.22766,South West Zone,Non-functional
BLM Lunzu,BT240097,Clinic,Non-Government,-15.65114,35.02028,South East Zone,Functional
BLM,MC010098,Clinic,Non-Government,-13.79508,32.89221,Centrals West Zone,Non-functional
Midima BLM,CR260099,Dispensary,Non-Government,-15.83121,35.08006,South East Zone,Non-functional
Banja la Mtsogolo,DA020100,Clinic,Non-Government,-13.53197,33.73802,Central East Zone,Functional
BLM,MZ160101,Clinic,Non-Government,-11.89882,33.59402,North Zone,Functional
BLM,MZ160102,Clinic,Non-Government,-11.45612,34.01638,North Zone,Functional
Ntcheu BLM,NT120103,Clinic,Non-Government,-14.81394,34.63512,Centrals West Zone,Functional
Banja Lamtsogolo,BT240104,Clinic,Non-Government,-15.8,35,South East Zone,Functional
BLM Zingwangwa Clinic,BT240105,Clinic,Non-Government,-15.81847,35.01171,South East Zone,Functional
Bloomfield,MU210106,Dispensary,Private,-16.057405,35.673299,South West Zone,Functional
Bolero hospital,RU140107,Hospital,Government,-10.97843,33.74342,North Zone,Functional
Bondo health center,MU210108,Health Centre,Government,-16.04267,35.61388,South West Zone,Functional
Boulos,LL040109,Clinic,Private,-13.98821,33.76929,Centrals West Zone,Non-functional
Bowa,DE030110,Clinic,Private,-14.3102,34.65581,Centrals West Zone,Non-functional
Bowe,DA020111,Health Centre,Government,-13.27878,33.68392,Central East Zone,Functional
Brothers Private Clinic,DE030112,Clinic,Private,-14.397146,34.327339,Centrals West Zone,Non-functional
Bua,KU070113,Health Centre,Government,-13.29403,33.53859,Central East Zone,Functional
Bua,NK100114,Health Centre,Government,-12.7967,34.20971,Central East Zone,Functional
Bula,KB050115,Health Centre,Government,-11.22268,34.12324,North Zone,Functional
Bulala,MZ160116,Health Centre,Government,-11.6781,33.44798,North Zone,Functional
Chingagwe,BK170117,Clinic,Government,NA,NA,South West Zone,Functional
Buli,LL040118,Health Post,Mission/Faith-based (other than CHAM),-13.919059,33.705512,Centrals West Zone,Non-functional
Bunda campus,LL040119,Health Centre,Parastatal,-14.18038,33.77554,Centrals West Zone,Functional
Bvumbwe Clinic - Limbe Muslim Jamat,TH310120,Dispensary,Non-Government,NA,NA,South East Zone,Functional
Research,TH310121,Health Centre,Government,-15.93981,35.02633,South East Zone,Functional
Bottom,LL040122,District Hospital,Government,-13.99164,33.77561,Centrals West Zone,Functional
Bwanje,NT120123,Health Centre,Government,-14.64857,34.77445,Centrals West Zone,Functional
Bwengu,MZ160124,Health Centre,Government,-11.06356,33.91646,North Zone,Functional
Bwese,LL040125,Clinic,Government,-14.223459,33.942495,Centrals West Zone,Non-functional
Care Medical,MZ160126,Clinic,Private,-15.0721589,35.2327018,North Zone,Functional
Care PolyClinic Cross Roads,LL040127,Dispensary,Private,NA,NA,Centrals West Zone,Functional
Care,KA150128,Clinic,Private,-9.9394464,33.9229215,North Zone,Functional
SOBO,BT240129,Clinic,Private,-15.79,35.03,South East Zone,Functional
Sobo,LL040130,Clinic,Private,-13.90107,33.79697,Centrals West Zone,Non-functional
CCK Health,LL040131,Dispensary,Private,-13.98302,33.75233,Centrals West Zone,Functional
Central 3 clinic,NK100132,Clinic,Private,-12.5033,34.1308,Central East Zone,Functional
Railways Private Clinic,BT240133,Clinic,Private,-15.81536,35.0633,South East Zone,Functional
Central Health Clinic,LL040134,Dispensary,Private,NA,NA,Centrals West Zone,Functional
Alinafe,MC010135,Clinic,Private,-13.51775,32.95893,Centrals West Zone,Non-functional
Chabvala,BT240136,Health Centre,Government,-15.83372,34.83461,South East Zone,Functional
Chadza,LL040137,Health Centre,Government,-14.14715,33.84167,Centrals West Zone,Functional
Chagoma,MZ160138,Health Post,Government,-11.214085,33.807507,North Zone,Functional
Tembwe,SA090139,Health Centre,Government,-13.88028,34.36721,Central East Zone,Functional
Chakhaza,DA020140,Health Centre,Government,-13.44421,33.64676,Central East Zone,Functional
Chama,CK270141,Clinic,Private,-16.264938,34.868513,South East Zone,Non-functional
Vision,KU070142,Dispensary,Government,-12.924306,33.776861,Central East Zone,Functional
Chamba,MC190143,Dispensary,Government,-15.20234,35.42137,South West Zone,Functional
Chamba,ZA230144,Health Centre,Government,-15.46571,35.51662,South West Zone,Functional
Chambe Health Centre,MU210145,Health Centre,Government,-16.071315,35.482338,South West Zone,Functional
Chambo,CP060146,Health Centre,Christian Health Association of Malawi (CHAM),-9.94361,33.39795,North Zone,Functional
Champiti,NT120147,Health Centre,Government,-14.90241,34.73185,Centrals West Zone,Functional
Chamwabvi,KU070148,Health Centre,Government,-13.10757,33.68528,Central East Zone,Functional
Chanco clinic,ZA230149,Clinic,Parastatal,-15.38533,35.33213,South West Zone,Functional
Chang'ambika,CK270150,Health Centre,Government,-15.80301,34.30928,South East Zone,Functional
Changalume,ZA230151,Health Centre,Government,-15.3896,35.21184,South West Zone,Functional
Changata,TH310152,Health Centre,Government,-16.078196,35.061008,South East Zone,Functional
Chankhungu,DA020153,Health Centre,Government,-13.76492,34.01471,Central East Zone,Functional
Erapecha,CK270154,Clinic,Private,-16.26044,34.86844,South East Zone,Non-functional
Mkadana,CK270155,Clinic,Government,-16.00551,34.48567,South East Zone,Functional
Chapola,MG200156,Dispensary,Private,NA,NA,South West Zone,Functional
Chipwaila Health Centre,CK270157,Health Centre,Government,-16.39842,34.77572,South East Zone,Functional
Charity Fellium Private Maternity Clinic,ZA230158,Clinic,Private,-15.38527,35.36156,South West Zone,Functional
Chapusa,MC190159,Health Post,Government,-14.94175,35.613673,South West Zone,Functional
chavula,ZA230160,Clinic,Private,-15.41083,35.32392,South West Zone,Functional
Chawone,TH310161,Dispensary,Government,-16.078196,35.061008,South East Zone,Non-functional
Chawezi private clinic,MC010162,Clinic,Private,-13.827426,33.044326,Centrals West Zone,Functional
Chendo,CP060163,Health Post,Government,-9.882464,33.410688,North Zone,Functional
Chesamu,KB050164,Health Centre,Government,-11.85422,34.01836,North Zone,Functional
Chagogo,LL040165,Clinic,Private,-14.07277,33.83195,Centrals West Zone,Non-functional
Chezi Mission Hospital,DA020166,Hospital,Christian Health Association of Malawi (CHAM),-13.65,34.04,Central East Zone,Functional
Chiwanja Pvt,MZ160167,Clinic,Private,-11.4509801,34.0117584,North Zone,Functional
Chibathi,MU210168,Health Post,Christian Health Association of Malawi (CHAM),-16.0712505,35.4823584,South West Zone,Functional
Chichiri ESCOM Clinic,BT240169,Clinic,Private,-15.79342,35.02444,South East Zone,Functional
Chichiri Prison Clinic,BT240170,Clinic,Government,-15.80577,35.03242,South East Zone,Functional
Chididi,NK100171,Health Centre,Christian Health Association of Malawi (CHAM),-13.08573,34.31474,Central East Zone,Functional
Chididi,NS300172,Health Centre,Christian Health Association of Malawi (CHAM),-16.91495,35.17333,South East Zone,Functional
chiendausiku,BK170173,Health Centre,Government,-15.01855,35.07653,South West Zone,Functional
Chifundo private clinic,NT120174,Clinic,Private,-14.819312,34.647228,Centrals West Zone,Non-functional
Chifundo private clinic,BT240175,Clinic,Private,-15.77562,34.98003,South East Zone,Functional
Chifunga Health center,NE290176,Health Centre,Government,-15.59825,34.69892,South East Zone,Functional
Chogeli clinic,BT240177,Clinic,Private,-15.841674,35.044006,South East Zone,Functional
Chigodi,NT120178,Health Centre,Christian Health Association of Malawi (CHAM),-14.49194,34.54126,Centrals West Zone,Functional
Chabisika,LL040179,Clinic,Private,-13.8803,33.76018,Centrals West Zone,Non-functional
Chigumula Clinic,BT240180,Clinic,Government,-15.89,35.06,South East Zone,Functional
Chihepusha,KA150181,Health Post,Government,-10.332331,34.110642,North Zone,Functional
Chikande,NT120182,Clinic,Government,-14.77261,34.90768,Centrals West Zone,Functional
Chikangawa,MZ160183,Clinic,Mission/Faith-based (other than CHAM),NA,NA,North Zone,Non-functional
Chikangawa,MZ160184,Health Centre,Government,-11.843327,33.8007455,North Zone,Functional
Chikole,MG200185,Clinic,Government,-14.422,35.38427,South West Zone,Functional
Chikowa,NT120186,Health Centre,Government,-14.959023,34.720362,Centrals West Zone,Functional
Chikowa,BT240187,Health Centre,Government,-15.67133,34.87172,South East Zone,Functional
Chizu,LL040188,Health Centre,Government,-13.72929,33.45821,Centrals West Zone,Functional
chikuli,MU210189,Dispensary,Private,-16.052873,35.645496,South West Zone,Functional
chikumbutso,KU070190,Clinic,Private,-13.06516,33.43482,Central East Zone,Functional
Chikuse,DE030191,Health Centre,Government,-14.15069,34.31881,Centrals West Zone,Functional
Chikutu,KA150192,Health Post,Government,-9.774048,33.734621,North Zone,Functional
Chikwawa,CK270193,District Hospital,Government,-16.0234699,34.79346,South East Zone,Functional
Chikweo,MC190194,Health Centre,Government,-14.7655,35.66691,South West Zone,Functional
Chikwina,KB050195,Health Centre,Government,-11.39694,34.16973,North Zone,Functional
Chilamba,DE030196,Clinic,Government,-14.356998,34.235692,Centrals West Zone,Non-functional
Chilambwe,KB050197,Health Centre,Christian Health Association of Malawi (CHAM),-11.69114,34.31617,North Zone,Functional
Chilani,BT240198,Health Centre,Private,-15.82874,35.00677,South East Zone,Functional
Chilani,NK100199,Clinic,Private,-12.730911,34.170489,Central East Zone,Functional
Child Legacy (Mkanga),LL040200,Health Centre,Christian Health Association of Malawi (CHAM),-14.0685264,33.472115,Centrals West Zone,Functional
Children of,LL040201,Dispensary,Private,NA,NA,Centrals West Zone,Functional
Chileka,BT240202,Health Centre,Government,-15.682466,34.970663,South East Zone,Functional
Chileka,LL040203,Health Centre,Government,-14.02102,33.38544,Centrals West Zone,Functional
Malamulo,BT240204,Health Centre,Christian Health Association of Malawi (CHAM),-15.65986,34.92904,South East Zone,Functional
Chilengo,TH310205,Dispensary,Government,-16.136105,35.015899,South East Zone,Functional
Chilewani,LL040206,Clinic,Mission/Faith-based (other than CHAM),-13.90729,33.75061,Centrals West Zone,Non-functional
Chirimba,BT240207,Health Centre,Government,-15.746368,35.022984,South East Zone,Functional
Chilinda clinic,RU140208,Health Post,Government,-10.59101,33.80605,North Zone,Functional
Chilinde,LL040209,Clinic,Government,-13.99587,33.81026,Centrals West Zone,Functional
chilingwe,MU210210,Dispensary,Private,-16.004056,35.648588,South West Zone,Non-functional
Chilipa,MG200211,Health Centre,Government,-14.6996,34.9732,South West Zone,Functional
Chilipa,ZA230212,Health Centre,Christian Health Association of Malawi (CHAM),-15.32447,35.11715,South West Zone,Functional
Chilobwe Private Clinic,BT240213,Clinic,Private,-15.83305,35.00742,South East Zone,Functional
Chilobwe,LL040214,Health Centre,Government,-13.85467,33.37439,Centrals West Zone,Functional
Chilomoni pvt clinic,BT240215,Clinic,Private,-15.77435,34.98145,South East Zone,Functional
Chilomoni,BT240216,Health Centre,Government,-15.77128,34.98156,South East Zone,Functional
BLM Chilomoni Clinic,BT240217,Health Centre,Non-Government,NA,NA,South East Zone,Functional
Chilonga,MG200218,Health Centre,Government,-14.4672204,34.8711754,South West Zone,Functional
Chilukwa,MZ160219,Health Post,Christian Health Association of Malawi (CHAM),-11.286936,33.821297,North Zone,Functional
Chilumba Barracks,KA150220,Health Centre,Government,-10.39021,34.20897,North Zone,Functional
Jetty,KA150221,Hospital,Government,-10.43199,34.25193,North Zone,Functional
Chimaliro Health Centre,TH310222,Health Centre,Government,-15.97706,35.18162,South East Zone,Functional
Ali,LL040223,Clinic,Private,-13.78326,33.81586,Centrals West Zone,Non-functional
Chimatiro,BK170224,Dispensary,Government,-14.962681,35.023092,South West Zone,Functional
Chitekwere,LL040225,Health Centre,Government,-13.9358,34.12567,Centrals West Zone,Functional
Chimbira,MC190226,Health Post,Government,-14.601369,35.805155,South West Zone,Functional
Chimembe,BT240227,Health Centre,Government,-15.77733,34.88548,South East Zone,Functional
Chimoto,DE030228,Health Centre,Government,-14.44268,34.01021,Centrals West Zone,Functional
Chimukusa,MZ160229,Clinic,Private,-11.91,33.59,North Zone,Non-functional
Chimvu,TH310230,Health Centre,Government,-15.94198,35.12308,South East Zone,Functional
Chimwala Health Centre,LL040231,Clinic,Christian Health Association of Malawi (CHAM),-14.05121,33.79419,Centrals West Zone,Functional
Chimwankango,MC010232,Dispensary,Government,-13.40461,32.99357,Centrals West Zone,Functional
Chimwawa,CR260233,Health Centre,Government,-15.909166,35.258729,South East Zone,Non-functional
Chimwemwe,KU070234,Clinic,Private,-12.5670818,33.5113505,Central East Zone,Functional
Maseko,ZA230235,Dispensary,Mission/Faith-based (other than CHAM),-15.3816,35.35584,South West Zone,Functional
Ching'oma,NS300236,Health Post,Government,-16.999306,35.109333,South East Zone,Functional
Chingadzi Hospital,TH310237,Hospital,Christian Health Association of Malawi (CHAM),-15.91842,35.20595,South East Zone,Functional
Chingale,ZA230238,Health Centre,Government,-15.39694,35.1808,South West Zone,Functional
Chinguluwe,NT080239,Health Centre,Government,-13.2614988,33.868625,Central East Zone,Functional
Chinguluwe,SA090240,Health Centre,Government,-13.66454,34.38503,Central East Zone,Functional
Chinguma,ZA230241,Health Post,Government,-15.230167,35.800284,South West Zone,Functional
Chinjobvu clinic,BT240242,Clinic,Private,-15.73676,35.0192,South East Zone,Functional
Chinkhwiri,DA020243,Health Centre,Government,-13.38557,33.72106,Central East Zone,Functional
Chinsapo Clinic,LL040244,Dispensary,Government,NA,NA,Centrals West Zone,Functional
Chinsasu,CP060245,Clinic,Government,-9.68485,33.41856,North Zone,Functional
Chintheche,KB050246,Hospital,Government,-11.82719,34.16836,North Zone,Functional
Chinthembwe,NT080247,Health Centre,Christian Health Association of Malawi (CHAM),-13.43326,33.97527,Central East Zone,Functional
Chinyama,KU070248,Health Centre,Government,-12.974524,33.797009,Central East Zone,Functional
Chinyama Health Centre,MU210249,Health Centre,Government,-16.1565351,35.3409743,South West Zone,Functional
Chiole,NT120250,Dispensary,Christian Health Association of Malawi (CHAM),-14.79743,34.64265,Centrals West Zone,Non-functional
Chioshya,MC010251,Health Centre,Government,-13.79586,33.17534,Centrals West Zone,Functional
Chipho,TH310252,Health Centre,Christian Health Association of Malawi (CHAM),-16.171528,35.110222,South East Zone,Functional
Chiphwanya,DE030253,Health Centre,Christian Health Association of Malawi (CHAM),-14.0848458,34.2583098,Centrals West Zone,Non-functional
Chipini,ZA230254,Health Centre,Christian Health Association of Malawi (CHAM),-15.39007,35.09531,South West Zone,Functional
Chipoka,SA090255,Health Centre,Government,-13.98973,34.51545,Central East Zone,Functional
Chipolonga,MC190256,Clinic,Government,-14.855441,35.685485,South West Zone,Non-functional
Chiponde,MG200257,Dispensary,Government,-14.373385,35.60143,South West Zone,Functional
Chipulumutso,KU070258,Clinic,Private,-13.30101,33.52806,Central East Zone,Non-functional
Chipumi,MC010259,Health Centre,Government,-13.62519,33.08151,Centrals West Zone,Functional
Chipwera,CP060260,Health Post,Government,-9.773001,33.522856,North Zone,Functional
Chiradzulu District Hospital,CR260261,District Hospital,Government,-15.7107196,35.1742529,South East Zone,Functional
Chilani,BT240262,Health Centre,Private,NA,NA,South East Zone,Functional
Chiringa,PH220263,Clinic,Government,-15.7724,35.769676,South West Zone,Functional
Chiringa CHAM,PH220264,Health Centre,Christian Health Association of Malawi (CHAM),-15.765692,35.761923,South West Zone,Functional
Lilongwe private clinic,LL040265,Clinic,Private,-13.93877,33.7921,Centrals West Zone,Non-functional
Chisala,KB050266,Health Centre,Government,-11.6064929,34.2540704,North Zone,Functional
chisambo,MU210267,Clinic,Other,-16.03822,35.70899,South West Zone,Functional
Chisenga,CP060268,Health Post,Government,-9.974946,33.389664,North Zone,Functional
chisepo,DA020269,Health Centre,Government,-13.63492,33.47017,Central East Zone,Functional
Chisi,ZA230270,Health Centre,Government,-1,1,South West Zone,Functional
Chisimuka,RU140271,Health Centre,Government,-10.76924,33.55751,North Zone,Functional
Chinsinga,KU070272,Health Centre,Government,-12.622028,33.326917,Central East Zone,Functional
Chisitu,MU210273,Health Centre,Government,-16.0009921,35.4330321,South West Zone,Functional
Chisoka Health centre,TH310274,Health Centre,Government,-15.94181,35.20879,South East Zone,Functional
Chisomo,NK100275,Clinic,Private,-12.627012,34.169701,Central East Zone,Functional
Chisomo Dental Clinic.,TH310276,Clinic,Private,-16.01,35.31,South East Zone,Non-functional
Chisomo,DE030277,Clinic,Private,-14.384728,34.319712,Centrals West Zone,Non-functional
Chisunga,TH310278,Health Post,Government,-13,33,South East Zone,Functional
Chisuwi,MC190279,Health Post,Government,-14.968767,35.45754,South West Zone,Functional
Chitala,SA090280,Health Centre,Christian Health Association of Malawi (CHAM),-13.67161,34.27174,Central East Zone,Functional
Gombwa,BT240281,Hospital,Private,-15.81293,35.02274,South East Zone,Functional
Chitedze,LL040282,Health Centre,Government,-13.97684,33.64529,Centrals West Zone,Functional
Chitekesa,PH220283,Health Centre,Government,-15.5521738,35.611432,South West Zone,Functional
Chitekwe Arthur D. Arthur Gar,BT240284,Clinic,Private,-15.83626,35.09193,South East Zone,Functional
Chitekwele,LL040285,Health Post,Government,-13.968615,34.096079,Centrals West Zone,Non-functional
Chitera,CR260286,Health Centre,Government,-15.60646,35.12306,South East Zone,Functional
Chitete,MC010287,Clinic,Private,-13.54479,33.17579,Centrals West Zone,Non-functional
Chinthandizo,BK170288,Clinic,Private,NA,NA,South West Zone,Functional
chithebe dispensary,TH310289,Dispensary,Government,-16.00218,35.01294,South East Zone,Functional
Chitheka,KB050290,Health Centre,Government,-11.6080989,34.3016984,North Zone,Functional
Chithumba Health Centre,CK270291,Health Centre,Government,-15.80369,34.47629,South East Zone,Functional
Chitimba,RU140292,Health Centre,Government,-10.59808,34.17026,North Zone,Functional
Chitipa,CP060293,District Hospital,Government,-9.70159,33.2659,North Zone,Functional
Chitowo,DE030294,Health Centre,Government,-14.22584,34.03961,Centrals West Zone,Functional
Chitundu,MC190295,Health Post,Government,-14.915042,35.650339,South West Zone,Functional
Chiumbangame,MG200296,Dispensary,Government,-14.31739,35.55721,South West Zone,Functional
Chiunda,MG200297,Clinic,Government,-14.7778842,35.4392003,South West Zone,Functional
Chiunjiza,LL040298,Health Centre,Government,-14.24322,33.4013,Centrals West Zone,Functional
Chiwamba,LL040299,Health Centre,Government,-13.8571,33.92926,Centrals West Zone,Functional
Kanandi Private Clinic,NT120300,Clinic,Private,-14.7772,34.56924,Centrals West Zone,Functional
Chiwe,LL040301,Health Centre,Christian Health Association of Malawi (CHAM),-13.90738,33.39862,Centrals West Zone,Functional
Chiweta,CP060302,Health Post,Government,-9.646359,33.246835,North Zone,Functional
Chiwoza,LL040303,Health Centre,Government,-14.13,33.72,Centrals West Zone,Functional
Chiza,KA150304,Clinic,Private,-10.4556943,34.2099356,North Zone,Functional
Vizimba Clinic,DE030305,Clinic,Private,-14.37657,34.33303,Centrals West Zone,Functional
Chizolowondo,DA020306,Health Centre,Government,-13.46336,33.51328,Central East Zone,Functional
St. Marys,KB050307,Clinic,Mission/Faith-based (other than CHAM),-12.03,34.62,North Zone,Functional
Chololo,MZ160308,Health Post,Government,-11.014233,33.972657,North Zone,Functional
Choma,MZ160309,Health Centre,Government,-11.31318,33.99327,North Zone,Functional
Chombe,KB050310,Dispensary,Private,-11.64771,34.21214,North Zone,Functional
Chonde,MU210311,Hospital,Government,-15.99708,35.32333,South West Zone,Functional
Chonde,LL040312,Clinic,Mission/Faith-based (other than CHAM),-13.99455,33.80908,Centrals West Zone,Non-functional
Chongoni,DE030313,Dispensary,Government,-14.31971,34.26677,Centrals West Zone,Functional
Chulu,KU070314,Health Centre,Government,-12.82192,33.30816,Central East Zone,Functional
City Health Assembly,LL040315,Clinic,Government,-13.98931,33.77082,Centrals West Zone,Non-functional
City centre Clinic,LL040316,Health Post,Private,-13.95666,33.7839,Centrals West Zone,Functional
Manicipality,ZA230317,Clinic,Government,-15.39072,35.32416,South West Zone,Functional
Barracks,ZA230318,Hospital,Parastatal,-15.39094,35.30534,South West Zone,Functional
Codachom,LL040319,Dispensary,Non-Government,NA,NA,Centrals West Zone,Functional
Come Again,BT240320,Unclassified,Private,-15.790118,35.085924,South East Zone,Functional
Andiamo,BK170321,Health Centre,Christian Health Association of Malawi (CHAM),-15.00318,34.95244,South West Zone,Functional
Mpinganjira,ZA230322,Clinic,Private,-15.32402,35.39372,South West Zone,Functional
Cross Roads Dental,LL040323,Clinic,Private,NA,NA,Centrals West Zone,Functional
Cumnock,KB050324,Clinic,Christian Health Association of Malawi (CHAM),-11.52705,34.08482,North Zone,Functional
Deayang,LL040325,Hospital,Christian Health Association of Malawi (CHAM),-13.87684,33.80867,Centrals West Zone,Functional
Dalirani Private Clinic,BT240326,Clinic,Private,-15.82529,35.08039,South East Zone,Functional
Dalitso,DA020327,Clinic,Private,-13.42237,33.60932,Central East Zone,Functional
Dambe,NE290328,Health Centre,Government,NA,NA,South East Zone,Functional
Livingstonia,RU140329,Clinic,Christian Health Association of Malawi (CHAM),-10.6036335,34.1109092,North Zone,Non-functional
David Livingston,LL040330,Health Post,Private,-13.98173,33.78813,Centrals West Zone,Functional
Steve Gamgata,BT240331,Dispensary,Private,-15.415159328,34.595993268,South East Zone,Functional
"De Johnstone, Maria I.M",BT240332,Health Centre,Private,NA,NA,South East Zone,Functional
Banja la mtsogolo,DE030333,Clinic,Non-Government,-14.37625,34.33035,Centrals West Zone,Non-functional
Dedza District Hospital,DE030334,District Hospital,Government,-14.38596,34.33547,Centrals West Zone,Functional
Dedza Private Clinic,DE030335,Unclassified,Parastatal,-14.386667,34.34323,Centrals West Zone,Functional
Demule,MU210336,Health Post,Christian Health Association of Malawi (CHAM),-15.9629283,35.4800095,South West Zone,Functional
Dental Studio-Zomba Clinic,ZA230337,Dispensary,Private,NA,NA,South West Zone,Functional
Destiny,NK100338,Clinic,Private,-12.508526700000001,34.1120499,Central East Zone,Functional
Diamphwe,LL040339,Health Centre,Government,-14.13232,34.08124,Centrals West Zone,Functional
Dickson,LL040340,Health Centre,Government,-14.26626,33.65885,Centrals West Zone,Functional
Discovery clinic,LL040341,Clinic,Private,-13.95818,33.79159,Centrals West Zone,Functional
District Health Office Mobile,BT240342,Health Centre,Government,NA,NA,South East Zone,Functional
DMI-St. John the Baptist University Clinic,MG200343,Dispensary,Private,NA,NA,South West Zone,Functional
Tambala,NT120344,Health Centre,Government,-14.929733,34.598272,Centrals West Zone,Functional
Dolo,CK270345,Health Centre,Government,-16.55349,34.92423,South East Zone,Functional
Domasi College Clinic,ZA230346,Dispensary,Government,-1,1,South West Zone,Functional
Ginisi,ZA230347,Hospital,Government,-15.28099,35.39935,South West Zone,Functional
Dopa,LL040348,Clinic,Private,-13.88647,33.75712,Centrals West Zone,Non-functional
Doviko,NT120349,Dispensary,Government,-15.0822,34.59094,Centrals West Zone,Functional
Dowa DHO,DA020350,District Hospital,Government,-13.65432,33.93625,Central East Zone,Functional
Dowela,MZ160351,Clinic,Private,-11.8988046,33.5940851,North Zone,Non-functional
Ghumra,LL040352,Clinic,Private,-13.98907,33.77412,Centrals West Zone,Non-functional
Chilemba,BT240353,Clinic,Private,-15.7864,35.0008,South East Zone,Functional
Dr. Dzinyemba,BT240354,Clinic,Private,-15.78609,35.00663,South East Zone,Functional
Lorgat,LL040355,Clinic,Private,-13.99049,33.77638,Centrals West Zone,Non-functional
Dr Kayange,BT240356,Clinic,Mission/Faith-based (other than CHAM),NA,NA,South East Zone,Functional
Dr. Msachi,MZ160357,Clinic,Private,-11.457783,34.0171355,North Zone,Functional
Dr. Kidys,BT240358,Hospital,Private,-15.78662,35.00755,South East Zone,Functional
kampondeni,BT240359,Hospital,Private,-15.81641,35.06629,South East Zone,Functional
Dwambazi,NK100360,Hospital,Government,-12.23405,33.99194,Central East Zone,Functional
Banja lamtsogolo,NK100361,Clinic,Non-Government,-12.50975,34.1121,Central East Zone,Functional
Cane growers Clinic,NK100362,Clinic,Private,-12.52114,34.1191,Central East Zone,Functional
Dwangwa,KU070363,Dispensary,Government,-12.88142,33.4537,Central East Zone,Functional
Dzabwa,LL040364,Health Post,Government,-14.101941,33.568143,Centrals West Zone,Non-functional
Kapombeza,LL040365,Health Centre,Government,-14.24936,33.44469,Centrals West Zone,Functional
Dzaleka,DA020366,Health Centre,Government,-13.66168,33.87042,Central East Zone,Functional
Dzenje,MU210367,Health Centre,Government,-16.1170073,35.4056002,South West Zone,Functional
ku mission,LL040368,Health Centre,Christian Health Association of Malawi (CHAM),-13.87598,33.74689,Centrals West Zone,Functional
DiDi,TH310369,Health Centre,Government,-16.06096,34.98999,South East Zone,Functional
Dzimbiri Health Post,TH310370,Health Post,Government,-16.10202,34.99722,South East Zone,Functional
Dzindevu,DE030371,Health Centre,Government,-14.20004,34.35998,Centrals West Zone,Functional
Dziwe,BK170372,Clinic,Government,NA,NA,South West Zone,Functional
Dziwe,BT240373,Health Centre,Government,-15.56369,34.88038,South East Zone,Functional
Dzonzi Mvai,NT120374,Dispensary,Government,-14.94827,34.64306,Centrals West Zone,Functional
Dzoole,DA020375,Health Centre,Government,-13.58537,33.66156,Central East Zone,Functional
Dzunje,NT120376,Health Centre,Government,-14.80787,34.73608,Centrals West Zone,Functional
Ebenezer private clinic,BT240377,Clinic,Private,-15.746697,35.020051,South East Zone,Functional
Edingeni,MZ160378,Hospital,Government,-12.04072,33.31295,North Zone,Functional
Ehehleni,MZ160379,Dispensary,Government,-12.2621,33.58912,North Zone,Functional
EKARI,NT120380,Clinic,Private,-14.81,34.63,Centrals West Zone,Non-functional
Ekhamuno,MU210381,Health Post,Christian Health Association of Malawi (CHAM),-16.0675917,35.46262,South West Zone,Functional
Ekwaiweni,MZ160382,Dispensary,Government,-11.42309,33.89766,North Zone,Functional
Ekwendeni near Market,MZ160383,Hospital,Christian Health Association of Malawi (CHAM),-11.37156,33.88342,North Zone,Functional
El_ Barakah Private clinic,BT240384,Clinic,Private,-15.68337,34.96584,South East Zone,Functional
Eldorado,MU210385,Clinic,Other,-16.06679,35.6139,South West Zone,Functional
Elim Private Clinic,BT240386,Clinic,Private,-15.8188,35.01231,South East Zone,Functional
Elizabeth Glazer Private Clinic,CP060387,Clinic,Private,-9.7,33.27,North Zone,Functional
Embangweni,MZ160388,Hospital,Christian Health Association of Malawi (CHAM),-12.136617,33.4766982,North Zone,Functional
Emfeni,MZ160389,Health Centre,Government,-12.59406,33.60976,North Zone,Functional
Emsizini,MZ160390,Health Centre,Government,-11.44435,33.82485,North Zone,Functional
Endindeni,MZ160391,Health Centre,Government,-11.75818,33.5561,North Zone,Functional
Engucwini,MZ160392,Health Centre,Government,-11.19761,33.82314,North Zone,Functional
Enukweni,MZ160393,Health Centre,Government,-11.18005,33.88592,North Zone,Functional
Escom,LL040394,Clinic,Other,-13.99195,33.77192,Centrals West Zone,Functional
Escom,MZ160395,Clinic,Parastatal,-11.4629863,34.0228251,North Zone,Functional
esparanza,MU210396,Clinic,Other,-16.03395,35.50475,South West Zone,Non-functional
Euthini,MZ160397,Hospital,Government,-11.4583127,33.4195575,North Zone,Functional
F and M Private Clinic,NK100399,Clinic,Private,-13.084364,34.304863,Central East Zone,Functional
Family Choice Private Clinic,CP060400,Clinic,Private,-9.7016717,33.2702792,North Zone,Functional
Family Health clinic,BT240401,Clinic,Private,-15.802603,35.051349,South East Zone,Functional
Family healthcare Private clinic,LL040402,Clinic,Private,-13.98652,33.79807,Centrals West Zone,Non-functional
FPAM,DA020403,Dispensary,Non-Government,-13.65834,33.93289,Central East Zone,Functional
FamilyPlanning Association of Malawi,KU070404,Clinic,Mission/Faith-based (other than CHAM),NA,NA,Central East Zone,Functional
FPAM,NT120405,Clinic,Non-Government,-14.80935,34.62561,Centrals West Zone,Functional
Fancy Private Clinic,NT080406,Clinic,Mission/Faith-based (other than CHAM),-13.35325,33.9191,Central East Zone,Non-functional
Fanuel,MC010407,Dispensary,Government,-13.304354,33.036303,Centrals West Zone,Functional
Fidelity,LL040408,Dispensary,Private,NA,NA,Centrals West Zone,Functional
Fomo,MU210409,Clinic,Private,-16.00603,35.48167,South West Zone,Functional
Fpam,LL040410,Health Post,Non-Government,-11.4026067,34.0020121,Centrals West Zone,Functional
Kawale FPAM,LL040411,Clinic,Non-Government,-13.99076,33.79949,Centrals West Zone,Functional
Mtengowanthenga,DA020412,Hospital,Christian Health Association of Malawi (CHAM),-13.6714609,33.7762569,Central East Zone,Functional
Fulirwa,KA150413,Health Centre,Government,-10.44772,34.11211,North Zone,Functional
Gaga,CK270414,Health Centre,Government,-15.80678,34.36487,South East Zone,Functional
Kachi,LL040415,Clinic,Private,-13.94267,33.77807,Centrals West Zone,Non-functional
Ganya,NT120416,Health Centre,Christian Health Association of Malawi (CHAM),-14.60964,34.61808,Centrals West Zone,Functional
Gateway Dispensary,BT240417,Dispensary,Government,-15.804572,35.017828,South East Zone,Functional
Gatrad Mahomed I,BT240418,Hospital,Private,-15.78707,35.00625,South East Zone,Functional
Gawanani,MC190419,Health Centre,Christian Health Association of Malawi (CHAM),-15.2238,35.20293,South West Zone,Functional
Gika Clinic,LL040420,Clinic,Private,-13.8965,33.76435,Centrals West Zone,Functional
Ginnery Corner BLM,BT240421,Health Centre,Non-Government,NA,NA,South East Zone,Functional
Girach,BT240422,Hospital,Private,-15.78721,35.00488,South East Zone,Functional
Glenorchy,MU210423,Clinic,Other,-15.9833,35.48386,South West Zone,Non-functional
GM Opticals,BT240424,Clinic,Mission/Faith-based (other than CHAM),-15,35,South East Zone,Functional
Gobede,LL040425,Clinic,Mission/Faith-based (other than CHAM),-14.13588,33.94554,Centrals West Zone,Non-functional
God Heals,BT240426,Health Centre,Private,NA,NA,South East Zone,Functional
chione,KU070427,Clinic,Private,-12.6993823,33.4917704,Central East Zone,Functional
Gogode,KU070428,Dispensary,Government,-12.88773,33.56134,Central East Zone,Functional
Gola,CK270429,Health Centre,Government,-15.883962,34.299339,South East Zone,Functional
Golomoti,DE030430,Health Centre,Government,-14.41303,34.60092,Centrals West Zone,Functional
Gombe,TH310431,Health Centre,Government,-16.37,35.23,South East Zone,Functional
Kasangamale,KA150432,Health Post,Government,-10.402957,34.134781,North Zone,Functional
Good Health,LL040433,Dispensary,Private,-13.94332,33.82,Centrals West Zone,Functional
Good Hope,LL040434,Dispensary,Private,-13.920696344738518,33.74781131744385,Centrals West Zone,Functional
Gotha Dispensary,TH310435,Dispensary,Private,-16.09239,35.19011,South East Zone,Non-functional
Gotha Estate Clinic,TH310436,Clinic,Government,-15.77213,35.76965,South East Zone,Functional
Gowa,NT120437,Health Centre,Christian Health Association of Malawi (CHAM),-14.69906,34.59001,Centrals West Zone,Functional
Gowoka,MZ160438,Health Post,Government,-11.518401,33.626397,North Zone,Functional
Grecious,CK270439,Clinic,Private,-16.26,34.87,South East Zone,Non-functional
Greenlight,SA090440,Dispensary,Private,NA,NA,Central East Zone,Functional
Gumba,MC010441,Dispensary,Government,-13.42125,33.11137,Centrals West Zone,Functional
Gwaza,LL040442,Clinic,Private,-14.00656,33.76453,Centrals West Zone,Non-functional
H Parker,ZA230443,Health Centre,Christian Health Association of Malawi (CHAM),-15.29912,35.36092,South West Zone,Functional
H.M.C Private Clinic,MG200444,Clinic,Private,-14.22,35.03,South West Zone,Non-functional
Ntambanyama,TH310445,Health Centre,Christian Health Association of Malawi (CHAM),-16.12668,35.08457,South East Zone,Functional
Bundi,KA150446,Dispensary,Government,-10.48876,34.16939,North Zone,Functional
Hasco Clinic,BT240447,Clinic,Private,-15.77738,35.00621,South East Zone,Functional
Healing Hearts,BT240448,Clinic,Private,-15.709567,35.071315,South East Zone,Functional
Henred,BT240449,Clinic,Private,-15.78901,35.03458,South East Zone,Functional
Hiwa Clinic,TH310450,Clinic,Private,-15.92686,35.08661,South East Zone,Non-functional
Dr Hiwa,LL040451,Clinic,Private,-13.97345,33.77328,Centrals West Zone,Non-functional
Hoho,MZ160452,Health Centre,Government,-12.27815,33.6864,North Zone,Functional
Banja loyera,PH220453,Hospital,Christian Health Association of Malawi (CHAM),-15.8247969,35.6190439,South West Zone,Functional
Hope Medical centre,BT240454,Health Centre,Private,-15,33,South East Zone,Functional
Hope,CK270455,Dispensary,Private,-16.106218,34.832659,South East Zone,Non-functional
Hope Village,LL040456,Dispensary,Private,NA,NA,Centrals West Zone,Functional
Area 36 private clinic,LL040457,Dispensary,Private,-14.01825,33.77906,Centrals West Zone,Functional
Hunger,ZA230458,Clinic,Non-Government,-15.500005,35.470979,South West Zone,Non-functional
Hunger Clinic,CK270459,Health Centre,Government,-16.27045,34.86368,South East Zone,Functional
Iba dispensery,MG200460,Clinic,Government,-14.2427791,35.3944457,South West Zone,Functional
Ifumbo,CP060461,Health Centre,Government,-9.60436,33.40495,North Zone,Functional
Ighughu,CP060462,Health Post,Government,-9.673396,33.496793,North Zone,Functional
Illovo Factory Estate Clinic - Nchalo,CK270463,Dispensary,Private,NA,NA,South East Zone,Functional
Internals,KU070464,Clinic,Private,-12.92744,33.79616,Central East Zone,Non-functional
Iponga,KA150465,Health Centre,Government,-9.6462311,33.8126995,North Zone,Functional
ITES,MC010466,Clinic,Private,-13.7951,32.89124,Centrals West Zone,Functional
Itulo,CP060467,Clinic,Government,-9.6780572,33.595689,North Zone,Non-functional
Iyela,CP060468,Clinic,Government,-9.686101,33.294537,North Zone,Non-functional
Jalasi,MG200469,Clinic,Government,-14.3628546,35.4426129,South West Zone,Functional
Jalawe,RU140470,Health Centre,Government,-10.73052,34.16172,North Zone,Functional
Jenda,MZ160471,Health Centre,Government,-12.35206,33.54755,North Zone,Functional
Jeofia Private Clinic,TH310472,Clinic,Private,-16.00758,35.30825,South East Zone,Non-functional
Medicare,BT240473,Clinic,Private,-15.78671,35.00799,South East Zone,Functional
Jti Leaf Clinic,LL040474,Dispensary,Private,-13.8898,33.80487,Centrals West Zone,Functional
Jerusalem Private Clinic,MZ160475,Clinic,Mission/Faith-based (other than CHAM),NA,NA,North Zone,Non-functional
Joy Private Clinic,CP060476,Clinic,Private,-9.7046383,33.2749897,North Zone,Functional
Jumpha,MC010477,Clinic,Mission/Faith-based (other than CHAM),-13.92459,33.22757,Centrals West Zone,Non-functional
Kabota,LL040478,Clinic,Private,-13.87567,33.75477,Centrals West Zone,Non-functional
Kabudula,LL040479,Hospital,Government,-13.81972,33.44838,Centrals West Zone,Functional
Kabuwa,MZ160480,Health Centre,Government,-12.51726,34.07395,North Zone,Functional
Kabwafu,MZ160481,Health Centre,Government,-11.30869,33.52556,North Zone,Functional
Kachepa,LL040482,Clinic,Private,-14.00913,33.81687,Centrals West Zone,Non-functional
kachere,LL040483,Clinic,Private,-14.00511,33.81734,Centrals West Zone,Functional
Kachere,KB050484,Health Centre,Government,-11.606664,34.2536593,North Zone,Functional
Kachere Rehabilitation,BT240485,Hospital,Non-Government,-15.80339,35.01819,South East Zone,Functional
Kachi Pvt Clinic - Area,LL040486,Clinic,Private,NA,NA,Centrals West Zone,Functional
Kachindamoto,DE030487,Health Post,Government,-14.2143955,34.5529965,Centrals West Zone,Functional
Kadango,MG200488,Clinic,Government,-14.060711,35.186208,South West Zone,Functional
Kadango Private Clinic.,TH310489,Clinic,Private,-16.00683,35.31009,South East Zone,Non-functional
Kadidi,BT240490,Health Centre,Government,-15.66083,35.02212,South East Zone,Functional
Kafere,DE030491,Health Centre,Government,-14.43168,33.71746,Centrals West Zone,Functional
Kafodya,LL040492,Clinic,Mission/Faith-based (other than CHAM),-14.0154,33.78389,Centrals West Zone,Non-functional
Kafukule,MZ160493,Health Centre,Government,-11.4575,33.63395,North Zone,Functional
Kaigwazanga,MC010494,Health Centre,Government,-13.62678,32.92836,Centrals West Zone,Functional
Kakoma,CK270495,Health Centre,Government,-16.09819,34.62398,South East Zone,Functional
Kalemba,NS300496,Health Centre,Christian Health Association of Malawi (CHAM),-16.57572,35.11207,South East Zone,Functional
Kalembo,BK170497,Health Centre,Government,-14.84268,35.17081,South West Zone,Functional
Kalikene,KU070498,Clinic,Private,-13.0389,33.48138,Central East Zone,Functional
Kalikumbi,MZ160499,Health Centre,Christian Health Association of Malawi (CHAM),-12.2038,33.33352,North Zone,Functional
Kalimanjira,NT120500,Health Centre,Government,-14.866774,34.90896,Centrals West Zone,Functional
Kalimanjira,NT080501,Dispensary,Government,NA,NA,Central East Zone,Functional
Kalinde,PH220502,Health Centre,Government,-15.67212,35.728338,South West Zone,Functional
Near Kalira school,CP060503,Health Post,Government,-9.575143,33.312223,North Zone,Functional
Luchenza Private clinic,TH310504,Clinic,Private,-16.00796,35.30939,South East Zone,Functional
Kaloga,NT120505,Clinic,Government,-14.90706,34.58044,Centrals West Zone,Non-functional
Kalong - Limbe,BT240506,Hospital,Mission/Faith-based (other than CHAM),-15.80902,35.05916,South East Zone,Functional
Kalulu,DE030507,Health Centre,Government,-13.99695,34.19753,Centrals West Zone,Functional
"Kalulu Health Centre, Chikwawa",CK270508,Dispensary,Government,NA,NA,South East Zone,Functional
Kaluluma,KU070509,Hospital,Government,-12.57759,33.51859,Central East Zone,Functional
Tachira,LL040510,Clinic,Private,-14.01916,33.72849,Centrals West Zone,Non-functional
Kamanda,MZ160511,Health Post,Government,-11.149343,34.032283,North Zone,Functional
Hossana clinic,NK100512,Clinic,Private,-12.92861,34.28305,Central East Zone,Functional
Kamatenda pvt clinic,LL040513,Clinic,Private,-14.00752,33.82203,Centrals West Zone,Functional
Kambanizithe,LL040514,Health Post,Government,-14.354443,33.710991,Centrals West Zone,Non-functional
Kambenje,MU210515,Health Centre,Government,-15.85308,35.56394,South West Zone,Functional
Kambilonjo,NT120516,Clinic,Private,-14.935073,34.589779,Centrals West Zone,Non-functional
Kambiya,LL040517,Clinic,Private,-13.82433,33.44662,Centrals West Zone,Non-functional
Kamboni,KU070518,Health Centre,Government,-13.30759,33.18189,Central East Zone,Functional
Kameme,CP060519,Health Centre,Government,-9.54425,33.13134,North Zone,Functional
Kims,LL040520,Clinic,Private,-13.99003,33.77382,Centrals West Zone,Non-functional
Kampanje,NT120521,Health Centre,Government,-14.59947,34.58684,Centrals West Zone,Functional
Kamphata,NS300522,Health Post,Government,-17.0468,35.21658,South East Zone,Functional
Kamphoni,LL040523,Health Post,Government,-14.31496,33.634283,Centrals West Zone,Functional
Kampini,LL040524,Health Post,Government,-14.29642,33.783076,Centrals West Zone,Non-functional
Kamsonga,NT080525,Health Centre,Government,-13.2745621,33.7993437,Central East Zone,Functional
Kamteteka,MZ160526,Health Centre,Government,-11.83649,33.35892,North Zone,Functional
Kamuzu Academy clinic,KU070527,Clinic,Private,-13.02938,33.68843,Central East Zone,Non-functional
Kamuzu Barracks,LL040528,Hospital,Government,-13.98131,33.82105,Centrals West Zone,Functional
Central,LL040529,Central Hospital,Government,-13.97639,33.78512,Centrals West Zone,Functional
Kamwe,MZ160530,Health Centre,Government,-11.10265,33.78911,North Zone,Functional
Kamwendo,MU210531,Health Post,Government,-15.674962,35.476907,South West Zone,Functional
Mdeza,DE030532,Dispensary,Government,-13.487476,33.92326,Centrals West Zone,Functional
Kande,KB050533,Health Centre,Government,-11.93641,34.10944,North Zone,Functional
Kandeu,NT120534,Health Centre,Government,-14.60262,34.61621,Centrals West Zone,Functional
Kanengo Tobacco and Processors Clinic,LL040535,Clinic,Private,-13.902,33.80639,Centrals West Zone,Non-functional
Kang'oma,LL040536,Health Centre,Government,-13.97817,33.88219,Centrals West Zone,Functional
Songeya,NT080537,Health Centre,Government,-13.37046,34.07048,Central East Zone,Functional
Kanjedza MASM Clinic,BT240538,Clinic,Private,NA,NA,South East Zone,Functional
Kanjedza Medical Clinic,BT240539,Clinic,Private,-15.81,35.05,South East Zone,Functional
Kanjeza Police dispensary,BT240540,Dispensary,Government,-15.815721,35.048525,South East Zone,Functional
Kankao,BK170541,Health Centre,Christian Health Association of Malawi (CHAM),-15.05425,34.92264,South West Zone,Functional
Kanyama,DE030542,Health Centre,Christian Health Association of Malawi (CHAM),-14.24015,34.32356,Centrals West Zone,Functional
Kanyenjere,CP060543,Health Post,Government,-9.762793,33.417264,North Zone,Functional
Kanyerere,DE030544,Health Post,Government,-13.966356,34.226041,Centrals West Zone,Non-functional
Stuka Private Clinic,MG200545,Clinic,Private,-14.48245,35.26128,South West Zone,Non-functional
Kanyezi,DE030546,Health Centre,Government,-14.31391,33.95303,Centrals West Zone,Functional
Kanyika,DA020547,Clinic,Private,-13.54849,33.7421,Central East Zone,Functional
Kanyimbi,NS300548,Health Post,Government,-16.69453,34.967,South East Zone,Functional
Kanyunya,MZ160549,Clinic,Private,-12.35,33.55,North Zone,Non-functional
Kaongozi,NK100550,Dispensary,Government,-12.43665,34.04998,Central East Zone,Functional
Kapanga,MC010551,Health Centre,Government,-14.05997,33.30626,Centrals West Zone,Functional
Kapangamawe,MZ160552,Health Post,Government,-11.449527,33.680755,North Zone,Functional
Kapelula,KU070553,Health Centre,Government,-12.87767,33.87086,Central East Zone,Functional
Kapenda,CP060554,Health Centre,Government,-9.49394,33.24911,North Zone,Functional
Kapeni Clinic - Project,LL040555,Dispensary,Private,NA,NA,Centrals West Zone,Functional
Kapeni Dream Centre,BT240556,Clinic,Christian Health Association of Malawi (CHAM),-15.62,35.01,South East Zone,Functional
Kapeni,NT120557,Clinic,Government,-15.00511,34.77059,Centrals West Zone,Functional
Kapesi,DE030558,Clinic,Private,-14.393757,34.325533,Centrals West Zone,Non-functional
Mission,SA090559,Health Centre,Christian Health Association of Malawi (CHAM),-13.76222,34.38418,Central East Zone,Functional
Kaphuka,DE030560,Health Centre,Government,-14.16013,34.19001,Centrals West Zone,Functional
Egenco Clinic,CK270561,Clinic,Private,-15.894817,34.757519,South East Zone,Functional
Kapiri,NK100562,Health Centre,Christian Health Association of Malawi (CHAM),-13.21616,34.31136,Central East Zone,Functional
Kapire,MG200563,Clinic,Christian Health Association of Malawi (CHAM),-14.7858459,34.9994469,South West Zone,Functional
Our Lady of Mount Carmel,MC010564,Hospital,Mission/Faith-based (other than CHAM),-15.556,35.8193,Centrals West Zone,Functional
Kapoka,CP060565,Health Post,Government,-9.780792,33.453954,North Zone,Non-functional
Kibwe,KA150566,Hospital,Government,-9.76756,33.87466,North Zone,Functional
kaputalambwe,DA020567,Health Post,Government,-13.7653091,33.898449,Central East Zone,Functional
Kapyanga,KU070568,Health Centre,Government,-12.82384,33.78842,Central East Zone,Functional
BLM,KA150569,Clinic,Private,-9.9402745,33.9242761,North Zone,Functional
Chaboma,KA150570,District Hospital,Government,-9.95545,33.91113,North Zone,Functional
Karopa,CP060571,Health Post,Government,-10.216613,33.650444,North Zone,Functional
Kasalika,KU070572,Health Centre,Government,-13.03985,33.49866,Central East Zone,Functional
Kasalika Private Clinic,KU070573,Clinic,Private,-13.03522,33.49927,Central East Zone,Non-functional
Kasamba Private Clinic,BT240574,Clinic,Private,-15.84,35.09,South East Zone,Functional
Kasambala,RU140575,Clinic,Private,-10.77593,34.03908,North Zone,Functional
Kasasa,NK100576,Clinic,Private,-12.53753,34.11818,Central East Zone,Functional
Kasembereka Dispensary,TH310577,Dispensary,Private,-16.12131,35.09902,South East Zone,Non-functional
Kasese,DA020578,Health Centre,Non-Government,-13.33338,33.57629,Central East Zone,Functional
Kaseye,CP060579,Hospital,Christian Health Association of Malawi (CHAM),-9.6665615,33.3740432,North Zone,Functional
Kasina,DE030580,Health Centre,Christian Health Association of Malawi (CHAM),-14.143,34.13183,Centrals West Zone,Functional
Kasinje,NT120581,Health Centre,Government,-14.52315,34.67642,Centrals West Zone,Functional
kasinthula,CK270582,Dispensary,Government,-16.07416,34.81651,South East Zone,Non-functional
Seventh day,NK100583,Health Centre,Christian Health Association of Malawi (CHAM),-12.30938,34.0343,Central East Zone,Functional
ZMK medical centre,LL040584,Clinic,Private,-13.97668,33.7513,Centrals West Zone,Non-functional
Kasoba,KA150585,Health Centre,Government,-9.87355,33.86972,North Zone,Functional
Kasonkhwe clinic,RU140586,Health Post,Christian Health Association of Malawi (CHAM),-10.733449,34.0789,North Zone,Functional
BLM,KU070587,Clinic,Non-Government,-13.04309,33.47858,Central East Zone,Non-functional
Kasungu,KU070588,District Hospital,Government,-13.03579,33.48041,Central East Zone,Functional
Mzinza,KU070589,Clinic,Government,NA,NA,Central East Zone,Non-functional
Kasungu Prison clinic,KU070590,Clinic,Government,-13.02095,33.45716,Central East Zone,Non-functional
Kaswavipindi,MZ160591,Clinic,Private,-11.9006108,33.5944116,North Zone,Non-functional
katawa,SA090592,Dispensary,Private,-13.71314,34.31801,Central East Zone,Functional
Katchale,LL040593,Health Centre,Government,-14.2836,33.90782,Centrals West Zone,Functional
Katema,MG200594,Health Centre,Christian Health Association of Malawi (CHAM),-14.5257587,35.0373813,South West Zone,Functional
Katemela,SA090595,Clinic,Private,-13.78493,34.45888,Central East Zone,Non-functional
Mission,MZ160596,Hospital,Christian Health Association of Malawi (CHAM),-12.34592,33.61421,North Zone,Functional
Katimbira,NK100597,Health Centre,Government,-12.7571482,34.2177405,Central East Zone,Functional
Katiri,KA150598,Dispensary,Government,-10.0693605,33.8813089,North Zone,Functional
Katope,MC010599,Health Post,Government,-11.074251,34.007405,Centrals West Zone,Functional
Katowo,RU140600,Hospital,Government,-10.81278,33.52222,North Zone,Functional
Katsekera,NT120601,Health Centre,Government,-15.03336,34.64072,Centrals West Zone,Functional
Katuli,MG200602,Health Centre,Government,-14.17962,35.44476,South West Zone,Functional
Katutula(sawala),MC010603,Health Post,Government,-13.440388,32.904728,Centrals West Zone,Non-functional
Kaundu,DE030604,Health Centre,Christian Health Association of Malawi (CHAM),-14.29368,34.62839,Centrals West Zone,Functional
Kavukuku,CP060605,Health Post,Government,-10.275083,33.571761,North Zone,Non-functional
Kavuzi,KB050606,Clinic,Private,-11.67441,34.08166,North Zone,Functional
Kavuzi,KB050607,Dispensary,Private,NA,NA,North Zone,Functional
Kavuzi,KB050608,Health Centre,Christian Health Association of Malawi (CHAM),NA,NA,North Zone,Functional
Kawalazi,KB050609,Clinic,Private,-11.64406,34.10983,North Zone,Functional
Kawale,LL040610,Health Centre,Government,-13.99175,33.79757,Centrals West Zone,Functional
Kawale clinic,LL040611,Clinic,Private,-13.99034,33.79717,Centrals West Zone,Non-functional
Kawamba,KU070612,Health Centre,Government,-13.29575,33.3393,Central East Zone,Functional
Kaweche,MZ160613,Health Centre,Government,-11.340511,33.8662969,North Zone,Functional
Nanyumbu,MC190614,Dispensary,Government,-14.85468,35.57198,South West Zone,Functional
Kayelekela,KA150615,Dispensary,Government,-9.970284,33.688526,North Zone,Functional
Kayembe,DA020616,Health Centre,Government,-13.64256,33.58301,Central East Zone,Functional
Tulame,MG200617,Clinic,Private,-14.69346,35.17977,South West Zone,Non-functional
Kazyozyo,MC010618,Health Centre,Government,-13.57544,32.86387,Centrals West Zone,Functional
Khama Private Clinic,BT240619,Clinic,Private,NA,NA,South East Zone,Functional
Khama,LL040620,Clinic,Mission/Faith-based (other than CHAM),-14.00916,33.81686,Centrals West Zone,Non-functional
Khamalathu,MU210621,Clinic,Private,-16.10652,35.34491,South West Zone,Non-functional
kharodia,LL040622,Clinic,Private,-13.98924,33.77741,Centrals West Zone,Non-functional
Khaya,MU210623,Clinic,Christian Health Association of Malawi (CHAM),-15.9890738,35.3945997,South West Zone,Functional
Khokhwa,CK270624,Health Post,Government,-16.526844,34.846862,South East Zone,Non-functional
Khola,KU070625,Health Centre,Government,-13.34447,33.31649,Central East Zone,Functional
Khombedza,SA090626,Health Centre,Government,-13.59695,34.31111,Central East Zone,Functional
Nkondowe,KB050627,Health Centre,Government,-11.07281,34.21939,North Zone,Functional
Khongoloni,MU210628,Dispensary,Private,-16.134032,35.530613,South West Zone,Non-functional
Khongoni,LL040629,Health Centre,Government,-13.77451,33.36761,Centrals West Zone,Functional
Twapochele,MC190630,Clinic,Private,-14.99535,35.49268,South West Zone,Non-functional
Khonjeni health centre,TH310631,Health Centre,Government,-16.09692,35.27129,South East Zone,Functional
Khosolo,MZ160632,Health Centre,Government,-12.4402,33.79133,North Zone,Functional
"Khuoge, Dane",BT240633,Clinic,Private,-15.76708,35.07471,South East Zone,Functional
Iwawe,NT080634,Health Centre,Government,-13.43192,33.83367,Central East Zone,Functional
Kim's Medical,LL040635,Dispensary,Private,NA,NA,Centrals West Zone,Functional
Koche hospital,MG200636,Hospital,Christian Health Association of Malawi (CHAM),-14.3333683,35.1434685,South West Zone,Functional
Kochilira,MC010637,Hospital,Government,-13.78239,33.04385,Centrals West Zone,Functional
Kopakopa,CP060638,Health Post,Government,-10.138347,33.702798,North Zone,Functional
Kotecha Clinic,BT240639,Clinic,Private,-15.7895,35.08616,South East Zone,Functional
Mziza,KU070640,Health Centre,Other,-13.27941,33.50405,Central East Zone,Functional
Kubalalika,CK270641,Clinic,Government,-15.90796,34.39405,South East Zone,Non-functional
Kukalanga,MG200642,Health Centre,Government,-14.6373449,35.1800722,South West Zone,Functional
Kumadzi,TH310643,Dispensary,Private,-16.1003,35.28876,South East Zone,Non-functional
Kumadzi Estate Clinic,MU210644,Dispensary,Private,NA,NA,South West Zone,Functional
Kumchenga,KU070645,Clinic,Mission/Faith-based (other than CHAM),-12.574862,33.5142678,Central East Zone,Non-functional
Kunenekude,MW280646,Health Centre,Government,-15.46467,34.49142,South East Zone,Functional
Kwambukwa,KA150647,Clinic,Private,-9.94049,33.92423,North Zone,Functional
Kwataine,NT120648,Clinic,Government,-14.839701,34.711143,Centrals West Zone,Non-functional
Kwitanda,BK170649,Clinic,Non-Government,-15.06495,35.093,South West Zone,Functional
L.M.J Private Clinic,MG200650,Clinic,Private,-14.29,35.1,South West Zone,Non-functional
Lafarge Cement Clinic,BT240651,Clinic,Private,-15.79231,35.02812,South East Zone,Functional
Lake View Health Centre,NT120652,Health Centre,Christian Health Association of Malawi (CHAM),-14.64251,34.55371,Centrals West Zone,Functional
Chilombo,ZA230653,Health Centre,Government,-15.4841,35.337,South West Zone,Functional
Lauderdale,MU210654,Clinic,Government,-16.04331,35.53515,South West Zone,Non-functional
Lemwe health center,LL040655,Health Centre,Government,-13.89,33.34,Centrals West Zone,Functional
Lengwe Estate Clinic,CK270656,Dispensary,Private,NA,NA,South East Zone,Functional
Life Line Medical Clinic - Kasese,LL040657,Dispensary,Private,NA,NA,Centrals West Zone,Functional
Life Line Medical Clinic - Ngozi,LL040658,Dispensary,Private,NA,NA,Centrals West Zone,Functional
Lifelane,ZA230659,Clinic,Private,-15.387836,35.318089,South West Zone,Functional
Lifeline health centre,SA090660,Health Centre,Private,-14.09219,34.54437,Central East Zone,Functional
Lifune,MC190661,Clinic,Government,-14.69513,35.70615,South West Zone,Non-functional
Lifupa,KU070662,Clinic,Government,-13.048889,33.146944,Central East Zone,Non-functional
Lifuwu,SA090663,Health Centre,Government,-13.67915,34.58878,Central East Zone,Functional
Lighthouse,LL040664,Dispensary,Private,-13.97639,33.78512,Centrals West Zone,Functional
ligowe health centre,NE290665,Health Centre,Government,-15.47368,34.65182,South East Zone,Functional
Likanga,MU210666,Clinic,Private,-16.08306,35.58609,South West Zone,Non-functional
Likangala,ZA230667,Health Centre,Government,-15.42787,35.54461,South West Zone,Functional
Likhonyowa,MC190668,Health Post,Government,-14.959359,35.790527,South West Zone,Functional
Chipyera,LK180669,Hospital,Christian Health Association of Malawi (CHAM),-12.0650755,34.73657,North Zone,Functional
Likudzi,NT120670,Clinic,Government,-15.11015,34.82945,Centrals West Zone,Non-functional
Ku Mission,LL040671,Hospital,Christian Health Association of Malawi (CHAM),-14.02683,33.70886,Centrals West Zone,Functional
Cha City pa ma kesha,LL040672,Clinic,Non-Government,-14.01331,33.73171,Centrals West Zone,Non-functional
Lilongwe City Assembly - Mtsiriza,LL040673,Dispensary,Government,NA,NA,Centrals West Zone,Functional
City assembly,LL040674,Clinic,Government,-13.98972,33.77049,Centrals West Zone,Non-functional
Lilongwe Health Clinic - Limbe Muslim,LL040675,Dispensary,Mission/Faith-based (other than CHAM),-13.96642,33.76625,Centrals West Zone,Functional
Lilongwe Private,LL040676,Dispensary,Private,NA,NA,Centrals West Zone,Functional
Diagnostics,BT240677,Clinic,Private,-15.81863,35.05639,South East Zone,Functional
Limbe,BT240678,Clinic,Government,-15.816967,35.051775,South East Zone,Functional
Limbe Home Based Care,BT240679,Clinic,Non-Government,-15.81714,35.05187,South East Zone,Functional
Limbe Leaf Clinic,BT240680,Clinic,Private,-15.81361,35.07035,South East Zone,Functional
Limbe Leaf Private Clinic,LL040681,Clinic,Private,-13.89319,33.80263,Centrals West Zone,Non-functional
limbe Medical Clinic,BT240682,Clinic,Private,-15.81,35.06,South East Zone,Functional
Limbe Muslim,BT240683,Clinic,Mission/Faith-based (other than CHAM),NA,NA,South East Zone,Functional
Limbe Muslim Jamat - Blantyre,BT240684,Clinic,Mission/Faith-based (other than CHAM),NA,NA,South East Zone,Functional
LMJ Diagnostic centre,BT240685,Clinic,Other,-15.82,35.06,South East Zone,Functional
Limbe Muslim Jamat - Habiba Mussa Clinic,BT240686,Dispensary,Mission/Faith-based (other than CHAM),-15.3882832,35.3135438,South East Zone,Functional
Limbe Muslim Jamat - Kachere,BT240687,Clinic,Private,-15.81,35.06,South East Zone,Functional
LMJ,BT240688,Clinic,Private,-15.81,35.06,South East Zone,Functional
Limbe Muslim Jamat Limbe,BT240689,Clinic,Other,-15.82,35.06,South East Zone,Functional
Hajira,BT240690,Clinic,Other,-15.78,35.07,South East Zone,Functional
Limbe Muslim Jamat - Mbayani,BT240691,Health Centre,Mission/Faith-based (other than CHAM),NA,NA,South East Zone,Functional
Limbe Muslim Jamat Clinic,BT240692,Health Centre,Mission/Faith-based (other than CHAM),NA,NA,South East Zone,Functional
Limbuli,MU210693,Clinic,Private,-16.05504,35.72129,South West Zone,Functional
Lingadzi pvt,LL040694,Clinic,Private,-13.97384,33.76003,Centrals West Zone,Non-functional
Lingalawe,MU210695,Clinic,Private,-16.00946,35.48489,South West Zone,Functional
Linyagwa Health Centre,KU070696,Health Centre,Government,-13.14379,33.3005,Central East Zone,Functional
Tachila,NT120697,Clinic,Private,-14.65106,34.5566,Centrals West Zone,Non-functional
Lilangwe,BT240698,Health Centre,Government,-15.52963,35.02973,South East Zone,Functional
Lisa,KU070699,Clinic,Mission/Faith-based (other than CHAM),-13.43941,33.39342,Central East Zone,Non-functional
Lisungwi Community Hospital,NE290700,Hospital,Government,-15.3954489,34.6531105,South East Zone,Functional
Liuzi,KB050701,Health Centre,Government,-12.18971,34.01572,North Zone,Functional
Khondowe,RU140702,Hospital,Christian Health Association of Malawi (CHAM),-10.60467,34.1109,North Zone,Functional
Livwezi,KU070703,Health Centre,Government,-12.893461,33.678996,Central East Zone,Functional
St Anne's,NK100704,Health Centre,Christian Health Association of Malawi (CHAM),-12.62054,34.16538,Central East Zone,Functional
Chili kumtima,MG200705,Clinic,Private,-15.06782,35.22473,South West Zone,Non-functional
Chilikumtima,MC190706,Dispensary,Private,-15.06782,35.22473,South West Zone,Functional
Lizulu,NT120707,Health Centre,Government,-14.51775,34.46547,Centrals West Zone,Functional
Lobi,DE030708,Health Centre,Government,-14.39034,34.07182,Centrals West Zone,Functional
Lodjwa,KU070709,Dispensary,Government,-12.41898,33.52947,Central East Zone,Functional
Logos pvt clinic,MG200710,Clinic,Mission/Faith-based (other than CHAM),NA,NA,South West Zone,Non-functional
Ludzi Community hospital,MC010711,Hospital,Christian Health Association of Malawi (CHAM),-13.75862,32.99271,Centrals West Zone,Functional
Lufita,CP060712,Health Post,Government,-9.713421,33.356036,North Zone,Non-functional
Lughano,KA150713,Clinic,Private,-9.9386275,33.9212449,North Zone,Functional
Lugola,MG200714,Health Centre,Christian Health Association of Malawi (CHAM),-13.9617583,35.14273,South West Zone,Functional
Lujeri Health Centre,MU210715,Health Centre,Private,-15.987206,35.416687,South West Zone,Functional
Lukoloma,MG200716,Clinic,Government,-13.834763,35.103171,South West Zone,Non-functional
Lulanga,MG200717,Health Centre,Christian Health Association of Malawi (CHAM),-13.68744,34.91742,South West Zone,Functional
Lulwe mission,NS300718,Health Centre,Christian Health Association of Malawi (CHAM),-17.08765,35.11415,South East Zone,Functional
Chinkhuti,LL040719,Health Centre,Government,-13.77074,33.80477,Centrals West Zone,Functional
Lumbadzi Masm,LL040720,Clinic,Non-Government,-13.75818,33.81183,Centrals West Zone,Non-functional
Mdziwika Clinic,TH310721,Clinic,Private,-15.92153,35.08464,South East Zone,Non-functional
Mitsidi,BT240722,Health Centre,Christian Health Association of Malawi (CHAM),-15.77702,34.96873,South East Zone,Functional
Lundu,BT240723,Health Centre,Government,-15.42185,35.01294,South East Zone,Functional
Lungazi,ZA230724,Health Post,Government,-15.418725,35.846034,South West Zone,Functional
Lungu Private Clinic,BT240725,Clinic,Private,-15.82999,35.07883,South East Zone,Functional
Lungwena,MG200726,Health Centre,Government,-14.24501,35.24804,South West Zone,Functional
Lunjika,MZ160727,Health Centre,Christian Health Association of Malawi (CHAM),-11.71429859,33.6857335,North Zone,Functional
Lupachi,NK100728,Health Post,Government,-12.318585,33.779585,Central East Zone,Functional
Lupaso,KA150729,Health Post,Government,-9.930017,33.853121,North Zone,Functional
Lupembe,KA150730,Health Centre,Government,-10.4889233,34.16902,North Zone,Functional
Dukuduku,RU140731,Health Centre,Government,-10.72638,34.04408,North Zone,Functional
Lusangazi,MZ160732,Dispensary,Christian Health Association of Malawi (CHAM),-11.49979,33.94291,North Zone,Functional
Lusungu,LK180733,Clinic,Private,-12.064708,34.740964,North Zone,Functional
Lutheran Mobile Clinic,LL040734,Dispensary,Christian Health Association of Malawi (CHAM),NA,NA,Centrals West Zone,Functional
Luviri,MZ160735,Health Post,Government,-12.2033,33.665772,North Zone,Functional
Luvwere,MZ160736,Dispensary,Government,-11.3889883,33.6728017,North Zone,Functional
Luwalika,MG200737,Health Centre,Christian Health Association of Malawi (CHAM),-14.23797,35.46952,South West Zone,Functional
Luwani Health Centre,NE290738,Health Centre,Government,-15.3955218,34.6531907,South East Zone,Functional
Luwannje Health Post,MU210739,Health Post,Christian Health Association of Malawi (CHAM),-15.9872824,35.4166259,South West Zone,Functional
Luwawa,MZ160740,Health Centre,Government,-12.11337,33.71943,North Zone,Functional
LUWEREZI,MZ160741,Health Centre,Government,-12.48825,33.64119,North Zone,Functional
Luwuchi,RU140742,Health Centre,Christian Health Association of Malawi (CHAM),-10.68353,34.19353,North Zone,Functional
Luzi Near M1 Road,MZ160743,Health Centre,Government,-10.99681,33.95583,North Zone,Functional
Lwazi Health Centre,KB050744,Health Centre,Government,-11.51864,34.15115,North Zone,Functional
Lwezga,KA150745,Health Centre,Government,-9.9548558,33.9116481,North Zone,Functional
M & M,SA090746,Clinic,Private,-13.77024,34.43795,Central East Zone,Non-functional
M'mambo,ZA230747,Health Centre,Government,-15.26264,35.15945,South West Zone,Functional
Mabiri,MZ160748,Health Centre,Christian Health Association of Malawi (CHAM),-12.2459011,33.4298413,North Zone,Functional
Chinyanje,CK270749,Clinic,Private,-16.0430261,34.7991556,South East Zone,Non-functional
Machado,MU210750,Clinic,Private,-16.02668,35.50529,South West Zone,Non-functional
Matchereza,NT120751,Health Post,Government,-15.20665,34.84761,Centrals West Zone,Functional
ku District,MC190752,District Hospital,Government,-15.06229,35.2263,South West Zone,Functional
Machinga Boma,MC190753,Health Centre,Government,-15.1773,35.29565,South West Zone,Functional
Machinga Private Clinic,MC190754,Clinic,Mission/Faith-based (other than CHAM),-14.87401,35.52903,South West Zone,Non-functional
Joyce Banda,ZA230755,Health Centre,Government,-15.23666,35.41707,South West Zone,Functional
Macro -Blantyre,BT240756,Health Centre,Non-Government,NA,NA,South East Zone,Functional
MACRO,KA150757,Dispensary,Private,NA,NA,North Zone,Functional
MACRO,KU070758,Clinic,Mission/Faith-based (other than CHAM),NA,NA,Central East Zone,Non-functional
Macro,LL040759,Clinic,Non-Government,-13.99819,33.776,Centrals West Zone,Functional
Macro,MZ160760,Clinic,Private,-11.4649,34.00439,North Zone,Functional
Madalitso Clinic,MC190761,Clinic,Private,-14.99319,35.49219,South West Zone,Non-functional
Madalitso,MC010762,Clinic,Private,-13.42256,33.11103,Centrals West Zone,Functional
Madalitso,SA090763,Clinic,Private,-13.78414,34.45409,Central East Zone,Functional
Madalitso Pvt Clinic,MG200764,Dispensary,Private,-14.1067221,34.9154986,South West Zone,Functional
Madede,MZ160765,Health Centre,Government,-11.53894,33.29456,North Zone,Functional
Madinah social services - Ndirande,BT240766,Clinic,Non-Government,-15.77621,35.03847,South East Zone,Functional
Madinah Social Services Mobile Clinic,MG200767,Dispensary,Private,NA,NA,South West Zone,Functional
Madise,MZ160768,Health Post,Government,-11.263586,33.780672,North Zone,Functional
madisi,DA020769,Hospital,Christian Health Association of Malawi (CHAM),-13.40712,33.60813,Central East Zone,Functional
Madziabango,BT240770,Health Centre,Government,-15.9678,34.90825,South East Zone,Functional
Maera,ZA230771,Health Centre,Government,-15.50987,35.1315,South West Zone,Functional
mafale,CK270772,Dispensary,Government,-16.286443,34.838562,South East Zone,Non-functional
MAFCO,SA090773,Health Centre,Government,-13.78419,34.60338,Central East Zone,Functional
Mafisi,TH310774,Clinic,Private,-16.06805,35.25101,South East Zone,Non-functional
Mafumphizi,KU070775,Health Post,Government,-12.708423,33.437599,Central East Zone,Non-functional
Magaleta,NE290776,Health Centre,Government,-15.3951395,34.6539354,South East Zone,Functional
Maganga,MG200777,Dispensary,Private,-13.6673082,34.8498272,South West Zone,Functional
Maganga,SA090778,Health Centre,Government,-13.84681,34.5591,Central East Zone,Functional
Magomero,ZA230779,Health Centre,Christian Health Association of Malawi (CHAM),-15.56147,35.26101,South West Zone,Functional
Mangunda,TH310780,Health Centre,Government,-16.02884,35.26166,South East Zone,Functional
Mahowe,CP060781,Health Centre,Government,-10.183192,33.690349,North Zone,Functional
MAIC,DE030782,Health Post,Government,NA,NA,Centrals West Zone,Functional
Fema,CK270783,Clinic,Private,-16.26676,35.06284,South East Zone,Non-functional
Majete,CK270784,Health Centre,Government,NA,NA,South East Zone,Functional
Makande,TH310785,Health Post,Government,NA,NA,South East Zone,Functional
Makanjira,MG200786,Health Centre,Government,-13.7152548,35.0473141,South West Zone,Functional
Makapwa Health Centre,TH310787,Health Centre,Christian Health Association of Malawi (CHAM),-16.18199,35.27984,South East Zone,Functional
Makata,BT240788,Health Centre,Government,-15.62996,35.07964,South East Zone,Functional
Makhanga,NS300789,Health Centre,Government,-16.33721,35.09671,South East Zone,Functional
Makhetha health centre,BT240790,Health Centre,Government,-15.62996,35.07964,South East Zone,Functional
Makhwira,CK270791,Health Centre,Government,-16.19483,35.01065,South East Zone,Functional
Makiyoni,SA090792,Health Centre,Government,-13.58599,34.197,Central East Zone,Functional
Maku private Clinic,BK170793,Clinic,Private,-14.98521,34.94269,South West Zone,Functional
Makungwa,TH310794,Health Centre,Government,-15.901417,34.9625479,South East Zone,Functional
Mwakwapala,ZA230795,Health Centre,Government,-15.36938,35.4506,South West Zone,Functional
Promedence,BT240796,Clinic,Private,-15.75017,35.0805,South East Zone,Functional
Makwasa Estate Clinic,TH310797,Dispensary,Private,-13,33,South East Zone,Functional
Dispensory,TH310798,Clinic,Other,-16.19476,35.10564,South East Zone,Non-functional
Malabada,BT240799,Health Centre,Christian Health Association of Malawi (CHAM),-15,33,South East Zone,Functional
Malawi Army Marine,MG200800,Dispensary,Government,-14.073,34.91684,South West Zone,Non-functional
Malambo,NT080801,Health Centre,Christian Health Association of Malawi (CHAM),-13.21307,33.76244,Central East Zone,Functional
Malamulo day Amina,BT240802,Clinic,Private,-15.80361,35.07471,South East Zone,Functional
Malamulo Mission Hospital,TH310803,Hospital,Christian Health Association of Malawi (CHAM),-16.17155,35.11011,South East Zone,Functional
Malavi,CR260804,Dispensary,Government,-15.83686,35.14867,South East Zone,Functional
Malawi Institute of Management,LL040805,Dispensary,Private,NA,NA,Centrals West Zone,Functional
Polytechnic,BT240806,Clinic,Government,-15.80207,35.02718,South East Zone,Functional
Maldeco Fisheries Clinic,MG200807,Clinic,Private,-14.3335,35.1492,South West Zone,Non-functional
Malembo,MG200808,Health Centre,Christian Health Association of Malawi (CHAM),-14.236395,34.8251595,South West Zone,Functional
Malembo health centre,LL040809,Health Centre,Government,-13.62006,33.41507,Centrals West Zone,Functional
Maleta,MG200810,Health Post,Government,-13.92942,35.26355,South West Zone,Functional
Malewa,MC010811,Health Post,Government,-13.432241,33.030532,Centrals West Zone,Non-functional
Malidade,MZ160812,Health Centre,Government,-11.22926,33.49989,North Zone,Functional
Kumalinga moyo,MC190813,Health Centre,Private,-14.87031,35.5294,South West Zone,Functional
Malingunde,LL040814,Health Centre,Christian Health Association of Malawi (CHAM),-14.16887,33.6397,Centrals West Zone,Functional
Malmed,BT240815,Health Centre,Private,-15,33,South East Zone,Functional
Umoyo,LL040816,Clinic,Private,-14.00077,33.78337,Centrals West Zone,Functional
Malombe,MG200817,Health Centre,Government,-14.6305,35.34912,South West Zone,Functional
Malomo,NT080818,Health Centre,Government,-13.14861,33.83927,Central East Zone,Functional
Malowa,NK100819,Health Centre,Government,-13.1816,34.25165,Central East Zone,Functional
Malukula,MG200820,Health Centre,Government,-14.4435236,35.3559647,South West Zone,Functional
Malungo,KA150821,Health Post,Government,-9.886358,33.905859,North Zone,Functional
Maluwa,LL040822,Health Centre,Government,-14.26287,33.87364,Centrals West Zone,Functional
Mama Ethel Private,LL040823,Dispensary,Private,NA,NA,Centrals West Zone,Functional
Mama khadija,MG200824,Clinic,Private,-14.3705396,35.4941945,South West Zone,Functional
Mamoyo,DA020825,Clinic,Private,-13.53532,33.73979,Central East Zone,Non-functional
Mhone,KA150826,Clinic,Private,-9.9400195,33.924482,North Zone,Functional
Mangamba,MC190827,Health Centre,Government,-14.79145,35.43652,South West Zone,Functional
Mangochi Banja la mtsogolo,MG200828,Clinic,Non-Government,-14.48185,35.26157,South West Zone,Non-functional
Mangochi district hospital,MG200829,District Hospital,Government,-14.4817417,35.2645629,South West Zone,Functional
Mangulenje Health Centre,CK270830,Health Centre,Government,-16.10534,34.9157,South East Zone,Functional
Manjawira,NT120831,Health Centre,Government,-15.00254,34.85709,Centrals West Zone,Functional
Manjolo,LL040832,Clinic,Mission/Faith-based (other than CHAM),-13.99252,33.772,Centrals West Zone,Non-functional
Kalanga,MZ160833,Health Centre,Government,-11.2279004,33.4584974,North Zone,Functional
Manyamula,MZ160834,Health Centre,Government,-11.94005,33.43945,North Zone,Functional
Manzunga,NK100835,Clinic,Private,-12.509885,34.111282,Central East Zone,Functional
Maonde,DE030836,Health Centre,Government,-14.4057,34.11592,Centrals West Zone,Functional
Maoni,MG200837,Health Post,Christian Health Association of Malawi (CHAM),-14.51126,34.997467,South West Zone,Functional
Mapale Medical Life,MZ160838,Dispensary,Private,NA,NA,North Zone,Functional
Mapanga Maternity,TH310839,Health Centre,Government,-16.03764,35.01675,South East Zone,Functional
Maperera,CK270840,Health Centre,Government,-16.10534,34.9157,South East Zone,Functional
Mapeto,BT240841,Clinic,Private,-15.79,35.03,South East Zone,Functional
Mary Mount,MZ160842,Clinic,Private,-11.44262,34.03582,North Zone,Non-functional
Masache,CK270843,Clinic,Private,-16.27028,34.87344,South East Zone,Non-functional
Masasa,NT120844,Clinic,Government,-14.4334,34.42243,Centrals West Zone,Functional
Mase,MG200845,Health Centre,Christian Health Association of Malawi (CHAM),-14.5804702,35.3641221,South West Zone,Functional
Masenjere,NS300846,Health Centre,Government,-16.33721,35.09671,South East Zone,Functional
Masida,LL040847,Clinic,Private,-13.99477,33.81085,Centrals West Zone,Non-functional
Masm Medi - Limbe,BT240848,Clinic,Private,-15.812582,35.055045,South East Zone,Functional
MASM,MZ160849,Clinic,Private,-11.4715261,33.9949023,North Zone,Functional
Area 12 Masm clinic,LL040850,Hospital,Private,-13.9319,33.81007,Centrals West Zone,Functional
Masm,ZA230851,Clinic,Private,-15.37823,35.331592,South West Zone,Functional
Matabwa,SA090852,Dispensary,Private,-13.72862,34.61536,Central East Zone,Functional
Matanda,NT120853,Health Centre,Christian Health Association of Malawi (CHAM),-15.10516,34.66845,Centrals West Zone,Functional
Matandani Health Centre,NE290854,Health Centre,Christian Health Association of Malawi (CHAM),-15.33071,34.65321,South East Zone,Functional
Matapira,LL040855,Health Centre,Government,-14.01108,33.97509,Centrals West Zone,Functional
Matawale,ZA230856,Health Centre,Government,-15.39029,35.35958,South West Zone,Functional
Matchereza,NT120857,Clinic,Government,-15.20675,34.8479,Centrals West Zone,Non-functional
Matekenya,DA020858,Health Centre,Government,-13.564647,34.047714,Central East Zone,Functional
Matewere,NT120859,Dispensary,Private,NA,NA,Centrals West Zone,Functional
Matiki,NK100860,Health Centre,Non-Government,-12.49874,34.15464,Central East Zone,Functional
Matiya,ZA230861,Health Centre,Christian Health Association of Malawi (CHAM),-15.53371,35.5478,South West Zone,Functional
Matope Health Centre,NE290862,Health Centre,Christian Health Association of Malawi (CHAM),-15.3537,34.94732,South East Zone,Functional
Matuli,MZ160863,Health Centre,Government,-11.48513,33.89613,North Zone,Functional
Matumba,DE030864,Health Centre,Christian Health Association of Malawi (CHAM),-14.37283,33.90594,Centrals West Zone,Functional
Kambuni,KB050865,Health Centre,Government,-11.73518,34.23514,North Zone,Functional
Maula Prison,LL040866,Clinic,Government,-13.97,33.77,Centrals West Zone,Functional
Mauwa,CR260867,Health Centre,Government,-15.65283,35.2498,South East Zone,Functional
Mayaka,ZA230868,Health Centre,Christian Health Association of Malawi (CHAM),-15.57355,35.3728,South West Zone,Functional
Mayani,DE030869,Health Centre,Government,-14.09697,34.24281,Centrals West Zone,Functional
Maziko Private,LL040870,Clinic,Private,-14.004942,33.8163,Centrals West Zone,Functional
MBA-Esita,DA020871,Clinic,Private,-13.28282,33.68994,Central East Zone,Non-functional
Mbabvi,LL040872,Health Centre,Government,-13.92808,33.67087,Centrals West Zone,Functional
Mbalachanda,MZ160873,Health Centre,Government,-11.35738,33.37133,North Zone,Functional
Mbalama,MG200874,Clinic,Government,-14.71435,35.49846,South West Zone,Non-functional
Mbalanguzi Heallth Post,TH310875,Health Post,Christian Health Association of Malawi (CHAM),-16.250872,35.166657,South East Zone,Non-functional
Mbalunji,KU070876,Clinic,Private,-12.81406,33.4339,Central East Zone,Non-functional
Mbang'ombe 2,LL040877,Health Centre,Government,-14.16945,33.37942,Centrals West Zone,Functional
Mbang'ombe 1,LL040878,Health Centre,Government,-13.73673,33.71382,Centrals West Zone,Functional
Mbanira,MC190879,Health Post,Government,-14.975262,35.598659,South West Zone,Functional
Mbawemi,MZ160880,Clinic,Private,-11.892919,33.593268,North Zone,Functional
Mbayani health Centre,BT240881,Clinic,Government,-15.775577,35.000875,South East Zone,Functional
Mbayani Health Care Clinic,BT240882,Clinic,Private,-15.765541,35.004675,South East Zone,Functional
Mbenje,NS300883,Health Centre,Government,-16.99464,35.22079,South East Zone,Functional
Mbera,BK170884,Health Centre,Government,-14.91088,35.05326,South West Zone,Functional
Mbingwa,DA020885,Health Centre,Government,-13.54425,33.51485,Central East Zone,Functional
kwaMbiza,MU210886,Health Centre,Government,-16.0928127,35.3461829,South West Zone,Functional
Mboma,TH310887,Unclassified,Private,-15,35,South East Zone,Functional
Mbonechera,MC190888,Dispensary,Government,-14.88932,35.47818,South West Zone,Functional
Mbulumbuzi,CR260889,Health Centre,Government,-15.63834,35.15687,South East Zone,Functional
Germa Private clinic,TH310890,Clinic,Private,-15.88722,35.06443,South East Zone,Non-functional
Mbwana Private Clinic,ZA230891,Dispensary,Private,NA,NA,South West Zone,Functional
Mbwatalika,LL040892,Health Centre,Christian Health Association of Malawi (CHAM),-14.00387,33.5507,Centrals West Zone,Functional
Mchacha James,NS300893,Health Post,Government,-16.76255,35.04739,South East Zone,Functional
Mchenga,RU140894,Clinic,Non-Government,-10.69957,34.14036,North Zone,Functional
Mchenga Private Clinic,KU070895,Clinic,Private,-12.575035,33.514531,Central East Zone,Non-functional
Mchima,TH310896,Health Post,Private,-16.11388,35.14018,South East Zone,Non-functional
Mchina,CP060897,Health Post,Government,-10.309487,33.711544,North Zone,Functional
Mchinji,MC010898,District Hospital,Government,-13.80273,32.88716,Centrals West Zone,Functional
Mchoka,SA090899,Health Centre,Government,-13.92593,34.48984,Central East Zone,Functional
Mdeka,BT240900,Health Centre,Government,-15.46769,34.94236,South East Zone,Functional
Mdeza,DE030901,Clinic,Government,-14.2351461,33.967781,Centrals West Zone,Functional
Mdunga,KU070902,Health Centre,Government,-12.9931,33.8519,Central East Zone,Functional
Masm,LL040903,Clinic,Non-Government,-13.96471,33.77771,Centrals West Zone,Non-functional
City Health Clinic,BT240904,Clinic,Mission/Faith-based (other than CHAM),-15.79648,35.00797,South East Zone,Functional
Mehboob Memorial Centre,MG200905,Clinic,Mission/Faith-based (other than CHAM),NA,NA,South West Zone,Non-functional
Melbooh,MG200906,Clinic,Non-Government,-14.36,35.17,South West Zone,Non-functional
Merit Clinic,BT240907,Clinic,Private,-15.77927,35.04387,South East Zone,Functional
Merry Year Health,LL040908,Dispensary,Private,NA,NA,Centrals West Zone,Functional
Mfera,CK270909,Health Centre,Government,-16.06818,34.86724,South East Zone,Functional
Mganja,DE030910,Health Centre,Government,-14.42048,34.52305,Centrals West Zone,Functional
Mgoza,MZ160911,Health Post,Government,-12.67329,33.831326,North Zone,Functional
Mhalaunda,MZ160912,Health Centre,Christian Health Association of Malawi (CHAM),-12.05118,33.46656,North Zone,Functional
MHRYN Private,LL040913,Dispensary,Private,NA,NA,Centrals West Zone,Functional
Mhuju Rural Hospital,RU140914,Hospital,Government,-10.86685,33.99765,North Zone,Functional
Mianga Estate Clinic,MU210915,Dispensary,Private,NA,NA,South West Zone,Non-functional
Mianga Clinic,TH310916,Clinic,Other,-16.09883,35.07553,South East Zone,Functional
Kwa Gwamba,RU140917,Clinic,Private,-11.02,33.78,North Zone,Functional
Medi Tech Private,BT240918,Hospital,Private,NA,NA,South East Zone,Functional
Midzemba,NE290919,Dispensary,Government,NA,NA,South East Zone,Functional
Migowi,PH220920,Health Centre,Government,-15.71922,35.68542,South West Zone,Functional
Mikoke,NT120921,Hospital,Government,NA,NA,Centrals West Zone,Functional
Mikolongwe,TH310922,Health Centre,Government,-15.90149,35.18367,South East Zone,Functional
Mikondo,DE030923,Health Centre,Christian Health Association of Malawi (CHAM),-14.44767,33.93951,Centrals West Zone,Functional
Mikundi,TH310924,Dispensary,Private,-16.018751,35.125457,South East Zone,Non-functional
Mikundi Health Centre,MC010925,Health Centre,Government,-13.70751,33.13821,Centrals West Zone,Functional
Mikuyu,ZA230926,Clinic,Government,-15.41764,35.41968,South West Zone,Functional
Mikuyu Adult Clinic,ZA230927,Dispensary,Government,-1,2,South West Zone,Functional
Mikuyu Young Clinic,ZA230928,Dispensary,Government,-1,3,South West Zone,Functional
Milepa,CR260929,Health Centre,Government,-15.68713,35.31818,South East Zone,Functional
Milonde,MU210930,Health Centre,Government,-16.1024462,35.4782637,South West Zone,Functional
Mimosa,MU210931,Health Centre,Government,-16.08574,35.61263,South West Zone,Functional
Ming'ongo,LL040932,Health Centre,Government,-14.07479,33.44838,Centrals West Zone,Functional
Minimini,MU210933,Clinic,Private,-16.05676,35.58444,South West Zone,Non-functional
Ministry of Hope Health Clinic,LL040934,Dispensary,Private,NA,NA,Centrals West Zone,Functional
Minoo's Dental,LL040935,Dispensary,Private,NA,NA,Centrals West Zone,Functional
Bwangu,NS300936,Health Post,Government,-16.76255,35.04739,South East Zone,Functional
Misanjo,MU210937,Health Post,Christian Health Association of Malawi (CHAM),-16.0882744,35.4762189,South West Zone,Functional
Misolo,MG200938,Dispensary,Private,NA,NA,South West Zone,Functional
Misomali Health Centre,CK270939,Health Centre,Christian Health Association of Malawi (CHAM),-16.03775,34.5372,South East Zone,Functional
Cooperative,CP060940,Hospital,Other,NA,NA,North Zone,Functional
Misuku,CP060941,Health Centre,Government,-9.67977,33.52076,North Zone,Functional
Mitengo Health Centre,TH310942,Health Centre,Christian Health Association of Malawi (CHAM),-16.11123,35.24591,South East Zone,Functional
Mitondo,CK270943,Health Post,Government,-16.26884,35.05789,South East Zone,Non-functional
Mitondo,ZA230944,Dispensary,Private,-15.5261,35.48619,South West Zone,Functional
Mitundu,LL040945,Hospital,Government,-14.24776,33.77465,Centrals West Zone,Functional
Mjini,DE030946,Health Centre,Government,-14.044388,34.238785,Centrals West Zone,Functional
Mkanda,MC010947,Health Centre,Government,-13.5146,32.96085,Centrals West Zone,Functional
Mkango,NS300948,Clinic,Government,-16.82472,35.30408,South East Zone,Non-functional
Mphatso,LL040949,Clinic,Private,-14.03877,33.71063,Centrals West Zone,Non-functional
Mkhota,KU070950,Health Centre,Government,-13.56651,33.34348,Central East Zone,Functional
Mkhuzi,NT080951,Health Centre,Government,-13.3665599,33.7767254,Central East Zone,Functional
Mkhwayi,PH220952,Health Centre,Government,-15.61457,35.62787,South West Zone,Functional
Chisomo Pvt Clinic,NK100953,Clinic,Private,-12.50588,34.11234,Central East Zone,Functional
Mkoma,MZ160954,Health Centre,Government,-12.61235,33.7824,North Zone,Functional
Mkoma Kamanga Private Clinic,MG200955,Clinic,Private,-14.08,34.92,South West Zone,Non-functional
Nkomaula health centre,MU210956,Health Centre,Government,-15.7211,35.36672,South West Zone,Functional
Mkumba,MG200957,Clinic,Government,-14.5946,35.52517,South West Zone,Non-functional
L and A,BT240958,Clinic,Private,-15.77528,35.04706,South East Zone,Functional
Mkwepere,MC190959,Health Centre,Government,-14.60286,35.63635,South West Zone,Functional
Mkwinda,LL040960,Health Post,Government,-14.177537,33.748205,Centrals West Zone,Functional
Mlale,LL040961,Hospital,Christian Health Association of Malawi (CHAM),-14.23011,33.75658,Centrals West Zone,Functional
Mlambe,BT240962,Hospital,Christian Health Association of Malawi (CHAM),-15.64466,35.01733,South East Zone,Functional
Mlanda,NT120963,Health Centre,Christian Health Association of Malawi (CHAM),-14.47886,34.45988,Centrals West Zone,Functional
Mlangali,DE030964,Health Centre,Government,-14.41322,34.27274,Centrals West Zone,Functional
Mlangeni,NT120965,Clinic,Government,-14.67662,34.53672,Centrals West Zone,Functional
Mlare,KA150966,Health Centre,Government,-10.173157,34.0358777,North Zone,Functional
Mulembe,CP060967,Health Centre,Government,-10.061782,33.377912,North Zone,Functional
Mlodza Seventhday Clinic,LL040968,Clinic,Christian Health Association of Malawi (CHAM),-14.007222,33.8175,Centrals West Zone,Functional
Mlolera clinic,LL040969,Clinic,Private,-13.95102,33.76703,Centrals West Zone,Non-functional
Mlolo,NS300970,Health Post,Government,-16.41959,35.1525,South East Zone,Functional
Mlomba,MC190971,Dispensary,Government,-15.01903,35.47708,South West Zone,Functional
Mlowe,RU140972,Health Centre,Christian Health Association of Malawi (CHAM),-10.76429,34.19488,North Zone,Functional
Muluma,NT120973,Dispensary,Christian Health Association of Malawi (CHAM),-14.71894,34.6355,Centrals West Zone,Functional
Mndinda,NT080974,Health Centre,Government,-13.2474,34.05675,Central East Zone,Functional
Ngwangwa,LL040975,Health Post,Government,-13.842277,33.684124,Centrals West Zone,Functional
Mnyanja,KU070976,Health Centre,Government,-12.722316,33.485857,Central East Zone,Functional
Ministry of Health Clinic,LL040977,Clinic,Government,-13.94628,33.78859,Centrals West Zone,Non-functional
Molere,TH310978,Health Centre,Christian Health Association of Malawi (CHAM),-16.21758,35.13552,South East Zone,Functional
Molipa,MC190979,Health Post,Government,-15.051421,35.390936,South West Zone,Functional
Mondwe,DA020980,Health Post,Government,-13.49199,33.443872,Central East Zone,Functional
Monekera,BT240981,Clinic,Private,-15.835334,35.008318,South East Zone,Functional
Monkey bay Community Hospital,MG200982,Hospital,Government,-14.0846593,34.9107539,South West Zone,Functional
MOTAL-ENGIL 301CLINIC,MW280983,Dispensary,Government,-15.92823,35.07786,South East Zone,Non-functional
Mota - Engil Zalewa Clinic,NE290984,Clinic,Other,-15.41426,34.82429,South East Zone,Non-functional
Mota-Engil Liwonde Clinic,MC190985,Dispensary,Private,NA,NA,South West Zone,Functional
Moyale,MZ160986,Health Centre,Government,-11.4597562,34.0383107,North Zone,Functional
Moyo,BT240987,Clinic,Private,-15.65374,35.02013,South East Zone,Functional
Moyo Uwemi,MZ160988,Clinic,Private,-12.36,33.55,North Zone,Non-functional
kwa Gunde,MU210989,Health Centre,Government,-16.1439048,35.5250625,South West Zone,Functional
Mpale,CP060990,Clinic,Private,-10.1869,33.54168,North Zone,Functional
Mpamantha,NK100991,Health Centre,Government,-13.06926,34.25224,Central East Zone,Functional
Mpamba,KB050992,Health Centre,Government,-11.54697,34.19727,North Zone,Functional
Mpasa,PH220993,Health Centre,Government,-15.7578844,35.611432,South West Zone,Functional
Mpasadzi,KU070994,Health Centre,Government,-12.583194,33.381861,Central East Zone,Functional
Mpata,KA150995,Health Centre,Government,-9.96062,33.81525,North Zone,Functional
MPC Bwaila ART Clinic Health,LL040996,Dispensary,Government,NA,NA,Centrals West Zone,Functional
Mpemba,CP060997,Health Post,Government,-10.134558,33.521683,North Zone,Functional
Mpemba,BT240998,Health Centre,Government,-15.87385,34.9523,South East Zone,Functional
Mpepa,KU070999,Clinic,Government,-12.621965,33.326557,Central East Zone,Non-functional
Mphate,CK271000,Clinic,Private,-16.0416555,34.7937221,South East Zone,Non-functional
Mphathi,DE031001,Health Centre,Government,-14.45516,34.07683,Centrals West Zone,Functional
Mdwah ccclinic,BT241002,Clinic,Private,NA,NA,South East Zone,Functional
Mphepozinayi,NT121003,Dispensary,Government,-14.73586,34.66115,Centrals West Zone,Functional
Mpherembe,MZ161004,Health Centre,Government,-11.28806,33.61431,North Zone,Functional
Mpherere,NT081005,Clinic,Mission/Faith-based (other than CHAM),NA,NA,Central East Zone,Non-functional
Mphofwa,MZ161006,Health Post,Government,-11.680054,33.620114,North Zone,Functional
Mphompha,RU141007,Health Centre,Government,-11.00662,34.07305,North Zone,Functional
Mphunzi,DE031008,Health Centre,Christian Health Association of Malawi (CHAM),-14.37933,34.17539,Centrals West Zone,Functional
Mpingo Maternity,BT241009,Health Centre,Government,-15,33,South East Zone,Functional
Mpiri,MC191010,Health Centre,Christian Health Association of Malawi (CHAM),-14.7721997,35.606633,South West Zone,Functional
Tchetsa,DE031011,Health Post,Government,-13.985608,34.306285,Centrals West Zone,Non-functional
Mpondasi,MG201012,Clinic,Christian Health Association of Malawi (CHAM),-14.45347,35.24387,South West Zone,Non-functional
Mponela,DA021013,Hospital,Government,-13.53264,33.73713,Central East Zone,Functional
Mposa,MC191014,Health Centre,Christian Health Association of Malawi (CHAM),-15.14906,35.51849,South West Zone,Functional
Msakambewa,DA021015,Health Centre,Government,-13.55296,33.89719,Central East Zone,Functional
Daeyang,LL041016,Health Centre,Christian Health Association of Malawi (CHAM),-13.78,33.91,Centrals West Zone,Functional
Nselema,MC191017,Clinic,Mission/Faith-based (other than CHAM),-14.72,35.55,South West Zone,Non-functional
Msenjere,NK101018,Health Centre,Government,-12.7324996,34.1705763,Central East Zone,Functional
Msese,MZ161019,Health Centre,Government,-12.36,33.74,North Zone,Functional
msithe,MU211020,Health Post,Christian Health Association of Malawi (CHAM),-16.0026202,35.413573,South West Zone,Functional
Msumbe,CP061021,Health Centre,Christian Health Association of Malawi (CHAM),-9.75123,33.67563,North Zone,Functional
Mt Soche,BT241022,Health Centre,Private,NA,NA,South East Zone,Functional
Mtakataka,DE031023,Health Centre,Government,-14.22745,34.51474,Centrals West Zone,Functional
mtambalika,DA021024,Health Post,Government,-13.277929,33.597239,Central East Zone,Non-functional
Mtambo,MC191025,Dispensary,Private,NA,NA,South West Zone,Functional
Mtanga,MC011026,Health Post,Government,-13.923819,33.26125,Centrals West Zone,Non-functional
Mtanga Private,LL041027,Dispensary,Private,NA,NA,Centrals West Zone,Functional
Mtemwende,DE031028,Health Post,Government,-14.151969,34.264936,Centrals West Zone,Non-functional
Mtende,MZ161029,Health Centre,Government,-11.49724,33.54894,North Zone,Functional
Mtendere Community Hospital,DE031030,Clinic,Christian Health Association of Malawi (CHAM),-14.32271,34.09373,Centrals West Zone,Functional
Mtendere,KU071031,Clinic,Private,-13.046124,33.49675,Central East Zone,Non-functional
Mtengoumodzi,BT241032,Hospital,Private,-15.7245,35.01637,South East Zone,Functional
Mtengowanthenga Dream Project,DA021033,Clinic,Non-Government,-13.671048,33.776073,Central East Zone,Functional
Mtenthela,LL041034,Health Centre,Government,-14.10884,34.00567,Centrals West Zone,Functional
Mtengowanthenga,DA021035,Hospital,Christian Health Association of Malawi (CHAM),-13.67165,33.77623,Central East Zone,Functional
Mtimabi,MG201036,Health Centre,Government,-14.6110653,35.0826738,South West Zone,Functional
Ntonda,NT121037,Health Centre,Christian Health Association of Malawi (CHAM),-15.02,34.75144,Centrals West Zone,Functional
Mtosa,NK101038,Health Centre,Government,-13.43876,34.27365,Central East Zone,Functional
Mtunthama,KU071039,Health Centre,Mission/Faith-based (other than CHAM),-13.03145,33.68209,Central East Zone,Functional
Mtwalo,MZ161040,Health Centre,Government,-11.39671,33.74591,North Zone,Functional
Mua Mission hospital,DE031041,Hospital,Christian Health Association of Malawi (CHAM),-14.28307,34.50972,Centrals West Zone,Functional
Muchila,SA091042,Dispensary,Private,-13.77774,34.43803,Central East Zone,Functional
Mufelanji Clinic,NE291043,Dispensary,Private,-15.36514,34.65447,South East Zone,Non-functional
Banja la mtsogolo,MU211044,Clinic,Non-Government,-16.01418,35.49317,South West Zone,Non-functional
Mulanje Hospital,MU211045,Hospital,Government,-16.02549,35.50785,South West Zone,Functional
ku Ulongwe,MU211046,Hospital,Christian Health Association of Malawi (CHAM),-16.0208672,35.4646005,South West Zone,Functional
Mulibwanji Community Hospital,MG201047,Hospital,Christian Health Association of Malawi (CHAM),-14.5115273,35.5880048,South West Zone,Functional
Mulomba,MU211048,Health Centre,Government,-15.76535,35.51182,South West Zone,Functional
Muloza,MU211049,Health Centre,Government,-16.08016,35.71573,South West Zone,Functional
Muluma,NT121050,Clinic,Mission/Faith-based (other than CHAM),-15.752,35.8193,Centrals West Zone,Non-functional
Mulungu Alinafe Clinic,MU211051,Dispensary,Private,-15.856828,35.815601,South West Zone,Functional
Mulungu Alinafe,PH221052,Dispensary,Private,-15.85719,35.81552,South West Zone,Functional
"Mumbwe,Mzuzu",MZ161053,Hospital,Private,-11.4610291,34.0260232,North Zone,Functional
Mungomo,MC191054,Clinic,Mission/Faith-based (other than CHAM),-14.72,35.55,South West Zone,Non-functional
"Munthali Ndalakwanji, N, Pra",BT241055,Clinic,Private,-15.72915,35.05581,South East Zone,Functional
Joyce Munthali Private Hospital,BT241056,Hospital,Private,-15.8044,35.0082,South East Zone,Functional
Muopo Private Clinic,BT241057,Clinic,Private,-15.83,35.09,South East Zone,Functional
Chifundo,LL041058,Clinic,Private,-13.98105,33.80223,Centrals West Zone,Non-functional
Muyendebwino,MW281059,Clinic,Non-Government,-15.57835,34.47736,South East Zone,Non-functional
Mvera Army,DA021060,Health Centre,Government,-13.77963,34.1398,Central East Zone,Functional
Mvera mission,DA021061,Health Centre,Christian Health Association of Malawi (CHAM),-13.73673,34.12876,Central East Zone,Functional
Mwachila private clinic,BT241062,Clinic,Private,-15.65548,35.02158,South East Zone,Functional
Mwai Medical Pvt Clinic,BT241063,Clinic,Private,-15.82,35.01,South East Zone,Functional
Mwai medical clinic,BT241064,Clinic,Private,-15.817263,35.013087,South East Zone,Functional
Proff Mbvundula,BT241065,Clinic,Private,-15.81191,35.04788,South East Zone,Functional
Mwaiwathu Clinic,BT241066,Clinic,Mission/Faith-based (other than CHAM),NA,NA,South East Zone,Functional
Mwaiwathu,BT241067,Hospital,Private,-15.78547,35.01691,South East Zone,Functional
Mwalanthunzi,TH311068,Clinic,Other,-16.06408,35.106607,South East Zone,Non-functional
Yankho,LL041069,Clinic,Private,-14.25007,33.7767,Centrals West Zone,Non-functional
Banja Clinic,BT241070,Clinic,Other,-15.762,34.9797,South East Zone,Functional
Mwanawanjovu,CK271071,Clinic,Government,-16.515473,35.029718,South East Zone,Functional
Mwanayaya,CK271072,Health Post,Government,-16.164028,34.940736,South East Zone,Non-functional
Mwandama,ZA231073,Health Centre,Government,-15.49803,35.18803,South West Zone,Functional
Mwanga,PH221074,Health Centre,Christian Health Association of Malawi (CHAM),-15.64601,35.532758,South West Zone,Functional
