facility_name,facility_code,facility_type,facility_ownership,latitude,longitude,admin1,status
CANOSSA,100675-8,Dispensary,Private,-3.45802,36.71262,Arusha,Operating
ARUSHA LIFECARE MEDICAL  CENTRE,124407-8,Health Laboratory,Private,-3.37721,36.67611,Arusha,Operating
TERRAT,107809-6,Dispensary,Public,-3.454225,36.652426,Arusha,Operating
COGI DARAJA II,100909-1,Dispensary,Private,-3.387378,36.690832,Arusha,Operating
NADOSOITO,109516-5,Dispensary,Public,-3.493953,36.681011,Arusha,Operating
AFYA MAX,111552-6,Clinic,Private,-3.365947,36.675616,Arusha,Operating
KAM Med,102269-8,Health Center,Private,-3.378285,36.696048,Arusha,Operating
KANAAN LAND,111489-1,Dispensary,Private,-3.405768,36.644791,Arusha,Operating
KIMAHAMA,111784-5,Clinic,Private,-3.367506,36.68474,Arusha,Operating
SHAMSI,112007-0,Health Laboratory,Private,-3.37261,36.66517,Arusha,Operating
ARUSHA LUTHERAN MEDICAL CENTRE CENTER,100188-2,Hospital,Private,-3.36626,36.68231,Arusha,Operating
AGA KHAN,108577-8,Clinic,Private,-3.37077,36.68944,Arusha,Operating
MOSHONO,105312-3,Dispensary,Public,-3.40497,36.7301,Arusha,Operating
FOCUS HUMAN,113539-1,Health Laboratory,Private,NA,NA,Arusha,Operating
AICC,109601-5,Hospital,Public,-3.37481,36.69946,Arusha,Operating
SAFARI B,123541-5,Health Laboratory,Private,-3.39156,36.71307,Arusha,Operating
JOBI,111844-7,Dispensary,Private,-3.375044,36.676086,Arusha,Operating
ST. MICHAEL HEALTH CARE,124006-8,Dispensary,Private,-3.38433,36.67871,Arusha,Operating
MORDEN,111997-3,Health Laboratory,Private,-3.37521,36.67407,Arusha,Operating
ARUSHA CITY,112384-3,Hospital,Public,-3.419736,36.704657,Arusha,Operating
AFYARISE,124406-0,Health Laboratory,Private,-6.45679,38.21149,Arusha,Operating
HOLY FAMILY,101379-6,Clinic,Private,-3.41223,36.70756,Arusha,Operating
FM HEALTH CARE,113632-4,Health Laboratory,Private,-3.36734,36.72587,Arusha,Operating
OLKEREYAN,106910-3,Dispensary,Public,-3.43613,36.72062,Arusha,Operating
SMART,113640-7,Health Laboratory,Private,-3.405221,36.645555,Arusha,Operating
TBL,111223-4,Dispensary,Private,-3.38329,36.69911,Arusha,Operating
NOUR,121007-9,Clinic,Private,NA,NA,Arusha,Operating
MAJENGO,113622-5,Health Laboratory,Private,-3.37093,36.66064,Arusha,Operating
TOTAL CARE,107868-2,Health Center,Private,-3.39064,36.70467,Arusha,Operating
ARUSHA HEALTH CENTRE FOR WOMEN,100187-4,Health Center,Private,-3.36106,36.68535,Arusha,Operating
ARUSHA X-RAY CENTRE,100192-4,Dispensary,Private,-3.36579,36.699,Arusha,Operating
MATEVES,109812-8,Dispensary,Public,-3.359082,36.601756,Arusha,Operating
BARAA,113551-6,Health Laboratory,Private,-3.37256,36.7378,Arusha,Operating
AVETI,110873-7,Clinic,Private,-3.36314,36.69035,Arusha,Operating
MOYO,120892-5,Clinic,Private,NA,NA,Arusha,Operating
KIJENGE RC,102755-6,Dispensary,Private,-3.3816,36.70815,Arusha,Operating
St Joseph Health Care International,112912-1,Hospital,Private,-3.360253,36.658594,Arusha,Operating
TANGANYIKA PACKERS,109790-6,Dispensary,Public,-3.408887,36.745975,Arusha,Operating
MICO PALLOT,112001-3,Health Laboratory,Private,-3.38373,36.67416,Arusha,Operating
NJIRO INTERNATIONAL,120496-5,Clinic,Private,NA,NA,Arusha,Operating
LEVOLOSI,103490-9,Health Center,Public,-3.37227,36.6799,Arusha,Operating
DOSIL,110462-9,Dispensary,Private,-3.4102,36.658531,Arusha,Operating
BETHELI,113627-4,Health Laboratory,Private,-3.386244,36.726143,Arusha,Operating
ROSHAN,121268-7,Clinic,Private,NA,NA,Arusha,Operating
BARAA,121157-2,Dispensary,Public,-3.3794400000000002,36.73552,Arusha,Operating
BANK OF TANZANIA,112918-8,Clinic,Private,-3.36951,36.69325,Arusha,Operating
MAKISOKA OPTICAL GOODS,121648-0,Optical Facility,Private,NA,NA,Arusha,Operating
MARIE STOPES,104331-4,Dispensary,Private,-3.375013,36.684394,Arusha,Operating
R & D,121375-0,Clinic,Private,NA,NA,Arusha,Operating
ST.PETER DIAGNOSTIC,123656-1,Health Laboratory,Private,NA,NA,Arusha,Operating
ITHNAASHERI CHARITABLE,101462-0,Clinic,Private,-3.37424,36.68132,Arusha,Operating
KUHENGA ANNEX,122203-3,Health Laboratory,Private,NA,NA,Arusha,Operating
ADN CARE,123643-9,Health Center,Private,-3.37589,36.70298,Arusha,Operating
OLD ARUSHA,106891-5,Health Center,Private,-3.37439,36.69686,Arusha,Operating
ST RAPHAEL,111488-3,Dispensary,Private,-3.36065,36.69618,Arusha,Operating
SMART,113629-0,Clinic,Private,-3.37187,36.69877,Arusha,Operating
NORLAN,122602-6,Dispensary,Private,-3.45573,36.72421,Arusha,Operating
HAYAAT,120897-4,Clinic,Private,-3.37051,36.69912,Arusha,Operating
VICTORY,113549-0,Health Laboratory,Private,-3.37681,36.70717,Arusha,Operating
OLORIEN COMMUNITY,110725-9,Dispensary,Private,-3.38774,36.71161,Arusha,Operating
KIMAHAMA EYE AND VISION CENTRE,121635-7,Clinic,Private,NA,NA,Arusha,Operating
SEKEI,111974-2,Health Laboratory,Private,-3.36287,36.70447,Arusha,Operating
HI-TEK BIOLAB,122071-4,Health Laboratory,Private,NA,NA,Arusha,Operating
Optical Solutions Arusha,121658-9,Clinic,Private,NA,NA,Arusha,Operating
JMS HUMAN HEALTH,111491-7,Dispensary,Private,-3.365352,36.689535,Arusha,Operating
LARUSA,112836-2,Clinic,Private,-3.369451,36.686845,Arusha,Operating
COGI AMAN OLASITI,110831-5,Dispensary,Private,-3.41753,36.65603,Arusha,Operating
CITY CENTRE,111964-3,Health Laboratory,Private,-3.36786,36.68499,Arusha,Operating
NGARENARO,106358-5,Health Center,Public,-3.37346,36.68146,Arusha,Operating
NZUNDUKA,111956-9,Health Laboratory,Private,-3.38012,36.65985,Arusha,Operating
WAIFURAHA,122338-7,Clinic,Private,NA,NA,Arusha,Operating
FARAJA,101134-5,Dispensary,Private,-3.37231,36.68135,Arusha,Operating
HEIN,122268-6,Clinic,Private,-3.36193,36.69596,Arusha,Operating
FORWARD MODERN,113550-8,Health Laboratory,Private,-3.39125,36.673492,Arusha,Operating
POLICE,107008-5,Dispensary,Public,-3.36811,36.69189,Arusha,Operating
MKONOO,105112-7,Health Center,Public,-3.46341,36.69805,Arusha,Operating
WELINESS,113623-3,Dispensary,Private,-3.386351,36.660058,Arusha,Operating
Life Line,121160-6,Health Laboratory,Private,NA,NA,Arusha,Operating
RINO,122072-2,Health Laboratory,Private,NA,NA,Arusha,Operating
AVINTA CARE,113552-4,Health Laboratory,Private,-3.37622,36.7024,Arusha,Operating
A TO Z,121333-9,Dispensary,Private,-3.38333,36.59226,Arusha,Operating
KIAZE,111998-1,Health Laboratory,Private,-3.36279,36.67261,Arusha,Operating
HEALTH4ALL,113628-2,Clinic,Private,-3.373656,36.699567,Arusha,Operating
DARAJA II,109552-0,Health Center,Public,-3.38057,36.68765,Arusha,Operating
SOMBETINI,107527-4,Dispensary,Public,-3.39463,36.665003,Arusha,Operating
CABRIM,123163-8,Dispensary,Private,-3.40549,36.66653,Arusha,Operating
MOSHONO,114594-5,Health Center,Public,-3.44421,36.7151,Arusha,Operating
GLORIA,101224-4,Dispensary,Private,-3.361671,36.697168,Arusha,Operating
ELITE OPTICS,112824-8,Clinic,Private,NA,NA,Arusha,Operating
YOUHEAL,123183-6,Clinic,Private,-3.38578,36.72323,Arusha,Operating
MICO SAJE,113542-5,Dispensary,Private,-3.430558,36.678524,Arusha,Operating
AVINTA CARE,121376-8,Clinic,Private,NA,NA,Arusha,Operating
THEMI,107817-9,Health Center,Public,-3.39838,36.70107,Arusha,Operating
SHAMAH,110726-7,Dispensary,Private,-3.384721,36.681034,Arusha,Operating
MEDICLINIC,120766-1,Clinic,Private,NA,NA,Arusha,Operating
MURICK,122130-8,Health Laboratory,Private,NA,NA,Arusha,Operating
CITYSMILE,124005-0,Clinic,Private,-3.38156,36.70945,Arusha,Operating
USANDA,112005-4,Health Laboratory,Private,-3.42054,36.65796,Arusha,Operating
ST GEMA,114497-1,Health Center,Private,-3.37477,36.69964,Arusha,Operating
FMCARE,122943-4,Dispensary,Private,-3.36729,36.43335,Arusha,Operating
DARAJA MBILI,121091-3,Dispensary,Private,-3.42678,36.66784,Arusha,Operating
DELIGHT,120470-0,Clinic,Private,-3.39329,36.70503,Arusha,Operating
EL-SHADAI,121380-0,Dispensary,Private,-3.36256,36.67537,Arusha,Operating
UPONE CHARITABLE,108142-1,Dispensary,Private,-3.376765,36.660904,Arusha,Operating
KIMANDOLU,109983-7,Dispensary,Public,-3.371417,36.722325,Arusha,Operating
Heri,101355-6,Dispensary,Private,-3.38638,36.68523,Arusha,Operating
FMM,110721-8,Clinic,Private,-3.362834,36.7009,Arusha,Operating
SINONI,110727-5,Dispensary,Private,-3.41708,36.6876,Arusha,Operating
BIKIRA MARIA MAMA WA HURUMA,100364-9,Health Center,Private,-3.36571,36.68761,Arusha,Operating
MEGACARE,120451-0,Clinic,Private,NA,NA,Arusha,Operating
AGA KHAN,123471-5,Clinic,Private,-3.37077,36.68944,Arusha,Operating
SAKINA,110911-5,Dispensary,Private,-3.36137,36.67014,Arusha,Operating
WELL POINT,110919-8,Dispensary,Private,-3.40508,36.705694,Arusha,Operating
KIVUYO HOPE,124330-2,Health Laboratory,Private,-3.36425,36.58232,Arusha,Operating
KALOLENI,102258-1,Health Center,Public,-3.369322,36.688577,Arusha,Operating
FIL,122208-2,Health Laboratory,Private,NA,NA,Arusha,Operating
UPENDO,108118-1,Dispensary,Private,-3.360182,36.696237000000004,Arusha,Operating
SUNBEAM OPTICAL CENTRE,112314-0,Clinic,Private,-3.374242,36.684171,Arusha,Operating
LC AFYAPRIME MEDICARE,124022-5,Dispensary,Private,-3.25451,36.40291,Arusha,Operating
VISION CARE,112316-5,Clinic,Private,-3.37181,36.68789,Arusha,Operating
THE DENTAL PLAZA LIMITED,111255-6,Clinic,Private,-3.40854,36.70658,Arusha,Operating
ELERAI,109982-9,Dispensary,Public,-3.368833,36.658632,Arusha,Operating
HIGHWAY HEALTH,111957-7,Health Laboratory,Private,-3.39452,36.66518,Arusha,Operating
CURARE,111958-5,Health Laboratory,Private,-3.37033,36.68735,Arusha,Operating
TAHFIFU,111960-1,Health Laboratory,Private,-3.37467,36.67456,Arusha,Operating
N.G LIGHT,111783-7,Dispensary,Private,-3.44181,36.66592,Arusha,Operating
SUNNI MUSLIM CHARITABLE,108580-2,Clinic,Private,-3.3717800000000002,36.68668,Arusha,Operating
BUTURI,111959-3,Health Laboratory,Private,-3.38578,36.70966,Arusha,Operating
ARUSHA JUNIOR,111965-0,Dispensary,Private,-3.368606,36.681106,Arusha,Operating
AMANI GE,111966-8,Health Laboratory,Private,-3.36825,36.68539,Arusha,Operating
NEEMA,111983-3,Health Laboratory,Private,-3.37232,36.68052,Arusha,Operating
SOFTMED,111996-5,Health Laboratory,Private,-3.43811,36.70531,Arusha,Operating
BARAA RC,100320-1,Dispensary,Private,-3.38882,36.73671,Arusha,Operating
WELEDI,122149-8,Health Laboratory,Private,NA,NA,Arusha,Operating
LCC HURUMA,110715-0,Dispensary,Private,-3.418995,36.658198,Arusha,Operating
SAMMY EYE CARE,112315-7,Clinic,Private,-3.36999,36.685859,Arusha,Operating
VISION PERFECT LIMITED,112318-1,Clinic,Private,-3.37217,36.69415,Arusha,Operating
VISION CARE,123188-5,Clinic,Private,-3.39788,36.70476,Arusha,Operating
OLORIENI,109980-3,Dispensary,Public,-3.385231,36.714165,Arusha,Operating
NEW KALOLENI,122073-0,Health Laboratory,Private,NA,NA,Arusha,Operating
METROPOLIS HEALTH CARE  TANZANIA LIMITED,121972-4,Health Laboratory,Private,-3.36686,36.68834,Arusha,Operating
STAR OPTOMETRY,112317-3,Clinic,Private,-3.361102,36.684911,Arusha,Operating
ST THOMASVUHC EYE CLINIC,121641-5,Clinic,Private,NA,NA,Arusha,Operating
MSIMBAZI EYE CENTRE LTD - ARUSHA BRANCH,114212-4,Clinic,Private,NA,NA,Arusha,Operating
GRAN MELIA ARUSHA,124144-7,Clinic,Private,-3.37079,36.70698,Arusha,Operating
EBEN,101053-7,Dispensary,Private,-3.36372,36.68965,Arusha,Operating
GLITZ,121317-2,Clinic,Private,NA,NA,Arusha,Operating
CRITI CARE,123664-5,Health Laboratory,Private,NA,NA,Arusha,Operating
AFYA MAX,120915-4,Clinic,Private,NA,NA,Arusha,Operating
MKOMBOZI,122343-7,Clinic,Private,-3.41733,36.69166,Arusha,Operating
SAMARITAN VILLAGE,114422-9,Dispensary,Private,-3.40194,36.74548,Arusha,Operating
MAGEREZA,109439-0,Dispensary,Public,-3.369214,36.619845,Arusha,Operating
BARAKA,114498-9,Dispensary,Private,-3.403896,36.6787,Arusha,Operating
OLASITI SMART,122173-8,Health Laboratory,Private,NA,NA,Arusha,Operating
AMENAH'S,124027-4,Dispensary,Private,-3.37603,36.66193,Arusha,Operating
MURIET,112377-7,Health Center,Public,-3.440929,36.654003,Arusha,Operating
AGAPE,111982-5,Health Laboratory,Private,-3.396758,36.658008,Arusha,Operating
SANAWARI,107272-7,Dispensary,Private,-3.362164,36.695852,Arusha,Operating
ARUSHA JUNIOR HUMAN,122160-5,Health Laboratory,Private,NA,NA,Arusha,Operating
PHYSIOCARE,121378-4,Physiotherapy Clinic,Private,-3.39398,36.70832,Arusha,Operating
Sokoni One Modern,121964-1,Health Laboratory,Private,NA,NA,Arusha,Operating
AVINTACARE MEDICAL CENTRE,120339-7,Health Center,Private,-3.375,36.7025,Arusha,Operating
DII,123224-8,Clinic,Private,-3.39384,36.70809,Arusha,Operating
MODERN CLINICAL,122110-0,Health Laboratory,Private,NA,NA,Arusha,Operating
ARUSHA CENTRE,111993-2,Health Laboratory,Private,NA,NA,Arusha,Operating
MOIVARO,105272-9,Health Center,Public,-3.39281,36.7559,Arusha,Operating
DR PHASHUNA HEALTH DIAGNOSTIC LABORATORY,121950-0,Health Laboratory,Private,NA,NA,Arusha,Operating
NJIRO SDA,110823-2,Dispensary,Private,-3.40858,36.70727,Arusha,Operating
R&D,122155-5,Health Laboratory,Private,NA,NA,Arusha,Operating
TANYA,121379-2,Clinic,Private,NA,NA,Arusha,Operating
HAYAAT,113630-8,Clinic,Private,-3.37051,36.69911,Arusha,Operating
PRINCE,113543-3,Health Laboratory,Private,-3.37626,36.66222,Arusha,Operating
TABASAMU,120877-6,Clinic,Private,-3.3667,36.68798,Arusha,Operating
ANNOINTING MEDICAL,122847-7,Dispensary,Private,-3.40767,36.67525,Arusha,Operating
OLMOTI,112378-5,Dispensary,Public,-3.426427,36.593784,Arusha,Operating
LIFECARE SPECIALIZED POLYCLINIC,120305-8,Clinic,Private,NA,NA,Arusha,Operating
ST. ELIZABETH,107581-1,Hospital,Private,-3.368883,36.677593,Arusha,Operating
FIRST CARE,120261-3,Dispensary,Private,-3.39336,36.67896,Arusha,Operating
HIGHWAY,110723-4,Dispensary,Private,-3.3729,36.68527,Arusha,Operating
FARAJA PALLOTI,121235-6,Physiotherapy Clinic,Private,NA,NA,Arusha,Operating
PATRICK PEYTON RC,120757-0,Health Center,Private,-3.40019,36.66621,Arusha,Operating
FAITH,101121-2,Dispensary,Private,-3.36737,36.72316,Arusha,Operating
ARUSHA SDA,121377-6,Clinic,Private,NA,NA,Arusha,Operating
MEGACARE,121011-1,Clinic,Private,NA,NA,Arusha,Operating
CHARITY MODERN,111963-5,Health Laboratory,Private,-3.38155,36.66116,Arusha,Operating
LULU MEDICAL,103705-0,Dispensary,Private,-3.37824,36.6625,Arusha,Operating
BEKESA,121092-1,Clinic,Private,NA,NA,Arusha,Operating
RESPECT,113547-4,Health Laboratory,Private,-3.38497,36.68385,Arusha,Operating
SUNSHINE,120895-8,Dispensary,Private,-3.40321,36.75906,Arusha,Operating
GEMSA,113625-8,Clinic,Private,-3.37508,36.69968,Arusha,Operating
ZEBRA,110921-4,Clinic,Private,-3.366802,36.684627,Arusha,Operating
ARUSHA SCHOOL,100190-8,Dispensary,Public,-3.3742,36.69426,Arusha,Operating
KUHENGA,113548-2,Health Laboratory,Private,-3.36363,36.66777,Arusha,Operating
TRUE,113544-1,Health Laboratory,Private,-3.41618,36.65687,Arusha,Operating
MT. MERU,105316-4,Hospital,Public,-3.36642,36.69498,Arusha,Operating
NGULELO,112832-1,Clinic,Private,-3.36597,36.72672,Arusha,Operating
HI-TEK,122176-1,Health Laboratory,Private,NA,NA,Arusha,Operating
LANCET,112000-5,Health Laboratory,Private,-3.37264,36.68842,Arusha,Operating
ROLAND HEALTH CARE,123714-8,Clinic,Private,-3.39363,36.70389,Arusha,Operating
SHREE HINDU,107442-6,Hospital,Private,-3.37712,36.68922,Arusha,Operating
NSK,111486-7,Hospital,Private,-3.380651,36.684811,Arusha,Operating
LANCET GEMSA,123008-5,Health Laboratory,Private,-3.37508,36.69968,Arusha,Operating
HEALTH-4-ALL,122784-2,Maternity Home,Private,-3.22245,36.41591,Arusha,Operating
ORBIT,120896-6,Clinic,Private,-3.37051,36.69912,Arusha,Operating
WANJIRO,113626-6,Health Laboratory,Private,-3.416383,36.704574,Arusha,Operating
JIGABHA,122451-8,Health Laboratory,Private,NA,NA,Arusha,Operating
ST. THOMAS,107637-1,Health Center,Private,-3.372425,36.688475,Arusha,Operating
MOYO MEDICARE,112930-3,Clinic,Private,-3.364268,36.698327,Arusha,Operating
HOPE,111782-9,Dispensary,Private,-3.424183,36.658004,Arusha,Operating
QUBE,113631-6,Health Laboratory,Private,-3.37452,36.73815,Arusha,Operating
BANGATA LUTHERAN,100309-4,Dispensary,Private,-3.33582,36.74476,Arusha,Operating
SELIAN,109595-9,Hospital,Private,-3.32548,36.6501,Arusha,Operating
ASHENGAI,113656-3,Health Laboratory,Private,-3.38493,36.58884,Arusha,Operating
KIMNYAKI MAASAI,102913-1,Dispensary,Private,-3.31311,36.64154,Arusha,Operating
KIVULUL,121779-3,Dispensary,Public,-3.34075,36.70718,Arusha,Operating
KISONGO,113654-8,Health Laboratory,Private,-3.372808,36.571935,Arusha,Operating
PAMOJA,111143-4,Clinic,Private,-3.31926,36.63523,Arusha,Operating
TUMAINIJEMA,111967-6,Health Laboratory,Private,-3.35025,36.64896,Arusha,Operating
LEMGUR,124255-1,Dispensary,Public,-3.42247,36.57694,Arusha,Operating
ILBORU SECONDARY,121490-7,Dispensary,Public,-3.34715,36.68728,Arusha,Operating
ESSOKA,109788-0,Dispensary,Private,-3.60492,36.66354,Arusha,Operating
ILKREVI,101745-8,Dispensary,Public,-3.37545,36.68302,Arusha,Operating
SAMBASHA,109545-4,Dispensary,Public,-3.293279,36.673411,Arusha,Operating
NGIRES,106388-2,Dispensary,Public,-3.33731,36.7346,Arusha,Operating
KISONGO CHARITABLE,109536-3,Health Center,Private,-3.37211,36.57025,Arusha,Operating
COGI NGARAMTONI,100916-6,Dispensary,Private,-3.31571,36.6388,Arusha,Operating
OLEMASEKE,123170-3,Dispensary,Private,-3.35735,36.68373,Arusha,Operating
NGORBOBO,106418-7,Dispensary,Public,-3.37559,36.57303,Arusha,Operating
OLDONYO SAMBU,106900-4,Health Center,Public,-3.15592001,36.68288001,Arusha,Operating
MUUNGANO,105727-2,Dispensary,Private,-3.45362,36.71341,Arusha,Operating
ILKUROT,121897-3,Dispensary,Public,-3.21224,36.62733,Arusha,Operating
OLKOKOLA,106913-7,Health Center,Public,-3.24666,36.64528,Arusha,Operating
MBUYUNI,104673-9,Health Center,Public,-3.574294,36.65867,Arusha,Operating
LENGIJAVE,103468-5,Dispensary,Public,-3.22259,36.6029,Arusha,Operating
OLDONYOWASI,106904-6,Dispensary,Public,-3.16025001,36.703001,Arusha,Operating
DR MASUDI,120304-1,Dispensary,Private,-3.37367,36.57231,Arusha,Operating
ZACI ILKIDING'A,109693-2,Dispensary,Private,-3.32286,36.68443,Arusha,Operating
MOUNT MERU,111144-2,Dispensary,Private,-3.362067,36.704846,Arusha,Operating
MIRONGOINE,109813-6,Dispensary,Private,-3.60759,36.66324,Arusha,Operating
NAMAYANI,123975-5,Dispensary,Private,-3.39563,36.53261,Arusha,Operating
ANGESCENCIA,124385-6,Dispensary,Private,-3.33867,36.69987,Arusha,Operating
ST.BAJO,123273-5,Health Laboratory,Private,-3.36133,36.70523,Arusha,Operating
DAREDA,122194-4,Health Laboratory,Private,NA,NA,Arusha,Operating
OLKOKOLA RC,106914-5,Dispensary,Private,-3.26578,NA,Arusha,Operating
OLGILAI,106906-1,Dispensary,Public,-3.34238,36.72191,Arusha,Operating
KISONGO SDA,107338-6,Dispensary,Private,-3.370954,36.546784,Arusha,Operating
MUNGUSH,105691-0,Dispensary,Public,-3.53059,36.83493,Arusha,Operating
NEM,113657-1,Health Laboratory,Private,-3.34662,NA,Arusha,Operating
GOOD HOPE FAMILY,120876-8,Dispensary,Private,-3.31192,36.64026,Arusha,Operating
UMOJA,121619-1,Dispensary,Public,-3.33814,36.741954,Arusha,Operating
LESIRAA,103487-5,Dispensary,Public,-3.396869,36.506901,Arusha,Operating
ESTHER NGARAMTONI,109462-2,Dispensary,Public,-3.31241,36.64039,Arusha,Operating
LOVILUKUNY,121896-5,Dispensary,Public,-3.40269,36.54774,Arusha,Operating
MULLA,122197-7,Health Laboratory,Private,NA,NA,Arusha,Operating
M&M KIWERA,103805-8,Dispensary,Private,-3.35912,36.66115,Arusha,Operating
OLCHOROVOSI,110712-7,Dispensary,Public,-3.35641,36.66751,Arusha,Operating
KISONGO LUTHERAN,103131-9,Dispensary,Private,-3.37077,36.58481,Arusha,Operating
NAMELOK,121675-3,Dispensary,Public,-3.13514,36.74372,Arusha,Operating
MIDAWE,120444-5,Dispensary,Public,-3.340105,36.744204,Arusha,Operating
KIGONGONI,124254-4,Dispensary,Public,-3.53682,36.77853,Arusha,Operating
OLTRUMENT,106922-8,Hospital,Public,-3.30344,36.60487,Arusha,Operating
MOIVO,105273-7,Dispensary,Public,-3.350111,36.70016,Arusha,Operating
IMBIBIA,101800-1,Dispensary,Public,-3.265367,36.56532,Arusha,Operating
ELI SPECIALIZED POLYCLINIC,120349-6,Clinic,Private,-3.31736,36.63355,Arusha,Operating
MANYIRE,104283-7,Dispensary,Public,-3.457352,36.805677,Arusha,Operating
SONGAMBELE,124259-3,Health Center,Public,-3.55963,36.81094,Arusha,Operating
OLORIEN,121722-3,Health Center,Public,-3.3226,36.64204,Arusha,Operating
LIKAMBA,103512-0,Dispensary,Public,-3.32382,36.54664,Arusha,Operating
KIOGA,102981-8,Dispensary,Public,-3.32543,36.6982,Arusha,Operating
LAROI,124257-7,Dispensary,Public,-3.49457,36.62384,Arusha,Operating
KIRANYI,122202-5,Health Laboratory,Private,NA,NA,Arusha,Operating
ILBORU,113650-6,Health Laboratory,Private,-3.35787,36.69103,Arusha,Operating
AFYA,123009-3,Health Laboratory,Private,-3.32831,36.62291,Arusha,Operating
HOREBU HILL,111880-1,Dispensary,Private,-3.31431,36.64286,Arusha,Operating
KISAU,113655-5,Health Laboratory,Private,-3.37465,36.56958,Arusha,Operating
LOSINONI,103589-8,Dispensary,Public,-3.13209,36.72001,Arusha,Operating
EKENYWA,111366-1,Dispensary,Private,-3.304082,36.643429,Arusha,Operating
BANGATA,100308-6,Dispensary,Public,-3.35845,36.74753,Arusha,Operating
MATONYORATA,120769-5,Dispensary,Private,-3.1466,36.69138,Arusha,Operating
BWAWANI,100654-3,Dispensary,Public,-3.60778,36.84283,Arusha,Operating
KISONGO PAG,106947-5,Dispensary,Private,-3.37391,36.57036,Arusha,Operating
ENGORORA,111510-4,Health Center,Public,-3.35498,36.54587,Arusha,Operating
OLDADAI,106898-0,Dispensary,Public,-3.356071,36.73511,Arusha,Operating
UZIMA,123772-6,Dispensary,Private,-3.31571,36.63881,Arusha,Operating
KIMNYAKI,102912-3,Dispensary,Public,-3.307269,36.660028,Arusha,Operating
SEURI,109600-7,Dispensary,Public,-3.30744,36.63943,Arusha,Operating
NDURUMA,106287-6,Health Center,Public,-3.48004,36.79311,Arusha,Operating
MWANDET,105908-8,Dispensary,Public,-3.240352,36.538173,Arusha,Operating
TRAS,113652-2,Health Laboratory,Private,-3.35326,36.69612,Arusha,Operating
FORESTRY TRAINING INSTITUTE OLMOTONYI,106917-8,Dispensary,Public,-3.29021,36.65643,Arusha,Operating
ASH,122207-4,Health Laboratory,Private,NA,NA,Arusha,Operating
OLJORO,109720-3,Dispensary,Public,-3.54043,36.65061,Arusha,Operating
ILBORU,101722-7,Dispensary,Private,-3.35361,36.68923,Arusha,Operating
THEMI YA SIMBA,107818-7,Dispensary,Public,-3.58101,36.78534001,Arusha,Operating
MIRONGOINE GVT,124258-5,Dispensary,Public,-3.60775,36.66359,Arusha,Operating
ENGUTUKOITI,124256-9,Dispensary,Public,-3.08383,36.74951,Arusha,Operating
COGI OLDONYOSAMBU,100918-2,Dispensary,Private,-3.14588,36.69191,Arusha,Operating
ILKERIN,121773-6,Dispensary,Public,-3.37448,36.57251,Arusha,Operating
MUSA,105715-7,Dispensary,Public,-3.32405,36.520461,Arusha,Operating
KIVULINI,112313-2,Health Center,Private,-3.51706,36.87044,Arusha,Operating
PONA,121531-8,Health Laboratory,Private,30,40,Arusha,Operating
OLDONYOSAPUK,106903-8,Dispensary,Public,-3.3292,36.7094,Arusha,Operating
KISERIANI,103088-1,Dispensary,Public,-3.45026,36.73876,Arusha,Operating
KIRANYI,103029-5,Dispensary,Public,-3.342505,36.668095,Arusha,Operating
PERFECT,120922-0,Dispensary,Private,-3.34993,36.68501,Arusha,Operating
SAFARI,113545-8,Health Laboratory,Private,-3.31559,36.641,Arusha,Operating
MLANGARINI,105192-9,Dispensary,Public,-3.44595,36.78874,Arusha,Operating
BLACA,113651-4,Health Laboratory,Private,-3.35597,36.69614,Arusha,Operating
MAJIMOTO,104065-8,Dispensary,Public,-3.495187,36.852856,Arusha,Operating
MADUNGA,103870-2,Dispensary,Public,-4.13426,35.4413,Manyara,Operating
DAREDA,100954-7,Hospital,Private,-4.24021,35.49297,Manyara,Operating
GIJEDABUNG,101219-4,Dispensary,Public,-4.19015,35.9198,Manyara,Operating
GIDAS,101217-8,Health Center,Public,-4.42089,35.68066,Manyara,Operating
ENDABEG,101082-6,Dispensary,Public,-4.25317,35.66211,Manyara,Operating
MAWEMAIRO,104509-5,Dispensary,Public,-4.05706,35.76117,Manyara,Operating
MAGUGU,103993-2,Health Center,Public,-4.00028,35.77902,Manyara,Operating
ST.ALFRED RIRODA RC,107089-5,Dispensary,Private,-4.18033,35.3892,Manyara,Operating
RIRODA PUBLIC,110705-1,Dispensary,Public,-4.30053,35.64894,Manyara,Operating
MWIKANTSI,106019-3,Dispensary,Public,-4.13649,35.86707,Manyara,Operating
MERR,104744-8,Dispensary,Public,-4.10739,35.58061,Manyara,Operating
ARRI TSAAYO,100183-3,Dispensary,Public,-4.24142,35.58945,Manyara,Operating
MADUNGA KATI,112261-3,Dispensary,Public,-4.17197,35.45381,Manyara,Operating
ENDAGWE,101083-4,Dispensary,Public,-4.35535,35.64857,Manyara,Operating
MATUFA HEALTH LABORATORY,121582-1,Health Laboratory,Private,-4.01667,35.76667,Manyara,Operating
ENDAKISO,101086-7,Dispensary,Public,-4.2086,35.89043,Manyara,Operating
BASHNET,109512-4,Dispensary,Public,-4.23058,35.42924,Manyara,Operating
MASWARE,104434-6,Dispensary,Public,-4.045581,35.724869,Manyara,Operating
ENDANACHANI,100203-9,Dispensary,Public,-4.33594,35.69565,Manyara,Operating
DURU,101042-0,Dispensary,Public,-4.31917,35.5972,Manyara,Operating
MAGARA,103909-8,Health Center,Public,-3.80612,35.69783,Manyara,Operating
HOSSAN,122224-9,Health Laboratory,Private,NA,NA,Manyara,Operating
SANGAIWE,107277-6,Dispensary,Public,-3.94035,35.82351,Manyara,Operating
MANAGHA,111158-2,Dispensary,Public,-4.263902,35.571519,Manyara,Operating
DOHOM,100992-7,Dispensary,Public,-4.165116,35.587384,Manyara,Operating
MAYOKA,104522-8,Dispensary,Public,-3.72426,35.71843,Manyara,Operating
MANYARA,113679-5,Dispensary,Public,-4.81647,35.72305,Manyara,Operating
NAR,106199-3,Dispensary,Public,-4.1813,35.4094,Manyara,Operating
NKAITI,106508-5,Health Center,Public,-3.73102,35.94225,Manyara,Operating
UFANA,108013-4,Health Center,Public,-4.244761,35.361191,Manyara,Operating
MINJINGU,104948-5,Dispensary,Public,-3.70156,35.92848,Manyara,Operating
BABATI DISTRICT COUNCIL,120367-8,Hospital,Public,-3.90419,35.81258,Manyara,Operating
BIKIRA MARIA EMAKULATA,104322-3,Health Center,Private,-4.20498,35.57598,Manyara,Operating
MAGUGU HEALTH LABORATORY,121578-9,Health Laboratory,Private,NA,NA,Manyara,Operating
GICHAMEDA,101212-9,Dispensary,Public,-3.97266,35.71631,Manyara,Operating
LUXMANDA,103618-5,Dispensary,Private,-4.25657,35.31042,Manyara,Operating
SHAURIMOYO,107400-4,Dispensary,Public,-3.91395,35.69272,Manyara,Operating
WAZAZI MAGUGU,108339-3,Dispensary,Private,-3.99993,35.77722,Manyara,Operating
EBENEZA HEALTH  DIAGNOSTIC LABARATORY,121583-9,Health Laboratory,Private,-4.218084,35.552016,Manyara,Operating
KISANGAJI,103126-9,Dispensary,Public,-3.91603,35.73258,Manyara,Operating
QAMEYU,107044-0,Dispensary,Public,-4.18902,35.48317,Manyara,Operating
VILIMAVITATU,108262-7,Dispensary,Public,-3.77939,35.86214,Manyara,Operating
DAREDA KATI,100952-1,Health Center,Public,-4.32022,35.55334,Manyara,Operating
GAJAL,101170-9,Dispensary,Public,-4.248429,35.553344,Manyara,Operating
GEDAMAR,101189-9,Dispensary,Public,-4.27828,35.89154,Manyara,Operating
Phanuel,113684-5,Health Laboratory,Private,NA,35.42669,Manyara,Operating
MWADA,105801-5,Dispensary,Public,-3.904661,35.812877,Manyara,Operating
GALLAPO,101174-1,Health Center,Public,-4.27448,35.85022,Manyara,Operating
SECHEDA,107341-0,Dispensary,Public,-4.27833,35.26288,Manyara,Operating
SABILO,107218-0,Dispensary,Public,-4.344606,35.479432,Manyara,Operating
BOAY,100387-0,Dispensary,Public,-4.394491,35.760601,Manyara,Operating
QASH,107047-3,Dispensary,Public,-4.32285,35.86963,Manyara,Operating
MAMIRE,104211-8,Health Center,Public,-4.1558,35.84129,Manyara,Operating
LAURA,121404-8,Dispensary,Private,-3.45888,36.56722,Manyara,Operating
ENDAKIKOTI,120433-8,Dispensary,Public,-4.23987,35.50552,Manyara,Operating
GESBERT,112259-7,Dispensary,Public,-4.29778,35.58731,Manyara,Operating
KIRU,103046-9,Dispensary,Public,-4.1205,35.68063,Manyara,Operating
TARANGIRE,107772-6,Dispensary,Public,-3.75304,35.97075,Manyara,Operating
MICKY,122218-1,Health Laboratory,Private,NA,NA,Manyara,Operating
STAR MISSION,113895-7,Dispensary,Private,-3.695161,35.935055,Manyara,Operating
DABIL,100942-2,Dispensary,Public,-4.33427,35.43401,Manyara,Operating
BASHNET,100336-7,Hospital,Private,-4.21978,35.42097,Manyara,Operating
GOOD HOPE DIAGNOSTIC LABORATORY,121579-7,Health Laboratory,Private,-4.20782,35.74614,Manyara,Operating
POLISI,107021-8,Dispensary,Public,-4.21352,35.74809,Manyara,Operating
NAKWA,112032-8,Dispensary,Public,-4.24685,35.70648,Manyara,Operating
ESK,121470-9,Health Laboratory,Private,NA,NA,Manyara,Operating
SIGINO,120562-4,Dispensary,Public,-4.12456,35.45121,Manyara,Operating
MWANANCHI,111591-4,Health Center,Private,-4.20893,35.74535,Manyara,Operating
MALANGI,104168-0,Dispensary,Public,-4.13067,35.7319,Manyara,Operating
MAGEREZA,103920-5,Dispensary,Public,-4.20682,35.76219,Manyara,Operating
MERON,113673-8,Health Laboratory,Private,-4.24662,35.70757,Manyara,Operating
ALPHA,122219-9,Health Laboratory,Private,-3.66011,35.84213,Manyara,Operating
BABATI ROMAN CATHOLIC,107067-1,Dispensary,Private,-4.21125,35.74022,Manyara,Operating
HALLA,101303-6,Dispensary,Public,-4.26719,35.82146,Manyara,Operating
DICK,112038-5,Health Laboratory,Private,-4.20703,35.74297,Manyara,Operating
SABILO,108515-8,Dispensary,Private,-4.21375,35.73888,Manyara,Operating
Mutuka,114047-4,Health Center,Public,-4.1612,35.82576,Manyara,Operating
MANYARA STAR,122216-5,Health Laboratory,Private,NA,NA,Manyara,Operating
AMEN,112037-7,Health Laboratory,Private,-4.2082,35.74563,Manyara,Operating
OASIS,115016-8,Clinic,Private,NA,NA,Manyara,Operating
SIGINO,121596-1,Health Center,Public,-4.12801,35.45121,Manyara,Operating
BETHZATHA,123900-3,Health Laboratory,Private,-4.14201,35.24151,Manyara,Operating
BABATI TOWN,100211-2,Hospital,Public,-4.2093,35.75929,Manyara,Operating
MASWA EYE CARE,112910-5,Clinic,Private,-4.20811,35.75108,Manyara,Operating
MANYARA,104279-5,Hospital,Public,-4.21657,35.71661,Manyara,Operating
BABATI,112033-6,Health Laboratory,Private,-4.21287,35.75005,Manyara,Operating
MARGAKAN,111813-2,Dispensary,Private,-4.20283,35.74792,Manyara,Operating
SINGE,111178-0,Dispensary,Public,-4.24822,35.74853,Manyara,Operating
SIAY HEALHTH DIAGNOSIS,122002-9,Health Laboratory,Private,-4.01671,35.76667,Manyara,Operating
KIONGOZI,102987-5,Dispensary,Public,-4.109341,35.758787,Manyara,Operating
KUSH,120625-9,Clinic,Private,NA,NA,Manyara,Operating
HIMITI,111179-8,Dispensary,Public,-4.313072,35.741462,Manyara,Operating
KIGONGONI,123516-7,Dispensary,Private,-4.10314,35.32123,Manyara,Operating
WAZAZI,108330-2,Dispensary,Private,-4.217541,35.749311,Manyara,Operating
NAM,123197-6,Clinic,Private,-4.12001,35.45191,Manyara,Operating
MSENGA,112035-1,Health Laboratory,Private,-4.21509,35.7494,Manyara,Operating
IBUNGU,112393-4,Dispensary,Private,-4.20703,35.74297,Manyara,Operating
EAGLE,115013-5,Clinic,Private,-4.20842,35.74575,Manyara,Operating
MANYARA STAR,121059-0,Clinic,Private,-4.21134,35.76334,Manyara,Operating
CHEMCHEM,121597-9,Dispensary,Public,-4.12311,35.46712,Manyara,Operating
MAISAKA,121595-3,Health Center,Public,-4.12001,35.45191,Manyara,Operating
BONGA,100411-8,Health Center,Public,-4.349211,35.738041,Manyara,Operating
ALVES,122230-6,Health Laboratory,Private,NA,NA,Manyara,Operating
AMANI,100109-8,Maternity and Nursing Home,Private,-4.20857,35.75193,Manyara,Operating
GLORY,114641-4,Maternity and Nursing Home,Private,-6.590034,39.089291,Pwani,Operating
CHACHA WAMBURA,100903-4,Health Center,Private,-6.44513,38.89997,Pwani,Operating
Zinga,108417-7,Dispensary,Public,-6.53212,38.98666,Pwani,Operating
KONGO,103303-4,Dispensary,Public,-6.545846,38.843808,Pwani,Operating
LUKHA,112513-7,Dispensary,Private,-6.61423,39.07312,Pwani,Operating
MATIMBWA,111330-7,Health Center,Public,-6.53809,38.86727,Pwani,Operating
KITAME,113742-1,Dispensary,Public,NA,NA,Pwani,Operating
MBEGANI,104587-1,Dispensary,Public,-6.473284,38.968897,Pwani,Operating
FACGBF,114803-0,Dispensary,Private,-6.50775,38.93623,Pwani,Operating
CARAVAN HEALTH CARE,114039-1,Dispensary,Private,-6.44404,38.90676,Pwani,Operating
KEREGE,102545-1,Health Center,Public,-6.586901,39.045262,Pwani,Operating
ZINGA,112512-9,Clinic,Private,-6.53562,38.97459,Pwani,Operating
MWENDA,115015-0,Clinic,Private,-6.45085,38.90743,Pwani,Operating
MAKURUNGE,104146-6,Dispensary,Public,-6.4725,38.7827,Pwani,Operating
CHARLES  W. SLOAN (CWS),124281-7,Health Center,Private,-6.45198,38.88571,Pwani,Operating
ALSA MEDICARE,123657-9,Health Center,Private,-6.58373,39.03821,Pwani,Operating
ZAI HEALTH LABORATORY,122688-5,Health Laboratory,Private,-6.54049,38.99123,Pwani,Operating
FAD,124427-6,Health Laboratory,Private,-6.45152,38.90216,Pwani,Operating
JEN-K,122188-6,Health Laboratory,Private,-6.528725,38.98634,Pwani,Operating
HAKIKA,114303-1,Health Laboratory,Private,-6.587724,39.053875,Pwani,Operating
JAMII II,124092-8,Health Laboratory,Private,-6.62711,39.04689,Pwani,Operating
TANZANITE,114261-1,Health Laboratory,Private,-6.451071,38.894608,Pwani,Operating
SHEREMBI,122750-3,Health Laboratory,Private,NA,NA,Pwani,Operating
IBRA,113283-6,Health Laboratory,Private,-6.44604,38.90358,Pwani,Operating
MLINGOTINI,105209-1,Dispensary,Public,-6.479646,38.997622,Pwani,Operating
MAMBOSASA,124414-4,Health Laboratory,Private,-6.44881,38.81891,Pwani,Operating
MWAVI,114405-4,Dispensary,Public,-6.388637,38.616955,Pwani,Operating
PANDE,111333-1,Dispensary,Public,-6.4904,38.9774,Pwani,Operating
KIROMO,103041-0,Dispensary,Public,-6.511686,38.939199,Pwani,Operating
YOMBO,108388-0,Dispensary,Public,-6.581429,38.850326,Pwani,Operating
NAZARETH,112110-2,Dispensary,Private,-6.58705,39.04781,Pwani,Operating
ST. ELIZABETH,107580-3,Health Center,Private,-6.434835,38.898268,Pwani,Operating
ALLIANCE,123624-9,Health Center,Private,-6.76758,35.06836,Pwani,Operating
KIGONGONI,102724-2,Dispensary,Public,-6.46261,38.8661,Pwani,Operating
CHAMBEZI,100717-8,Dispensary,Public,-6.555439,38.91686,Pwani,Operating
REMLE,122707-3,Dispensary,Private,-6.44432,38.88811,Pwani,Operating
ASANTEAFYA,122749-5,Health Laboratory,Private,-6.48067,39.00125,Pwani,Operating
KIDOMOLE,111328-1,Dispensary,Public,-6.448501,38.743105,Pwani,Operating
KAOLE,102352-2,Dispensary,Public,-6.461357,38.938416,Pwani,Operating
Wena Care Mapinga.,122753-7,Clinic,Private,NA,NA,Pwani,Operating
TUNGUTUNGU,115012-7,Dispensary,Public,-6.57718,39.08501,Pwani,Operating
AMAROUNA,122596-0,Clinic,Private,-6.44439,38.90461,Pwani,Operating
MATAYA,104450-2,Dispensary,Public,-6.524534,38.895955,Pwani,Operating
FACGBF,110939-6,Maternity Home,Private,-6.44685,38.90069,Pwani,Operating
MAVURA TRUSTCARE HEALTH LABORATORY,123570-4,Health Laboratory,Private,-6.52492,38.98359,Pwani,Operating
KIEMBENI,123650-4,Health Laboratory,Private,-6.57522,39.10543,Pwani,Operating
MAPINGA,104301-7,Dispensary,Public,-6.589316,39.060756,Pwani,Operating
SOBAREVO,124280-9,Clinic,Private,-6.62434,39.06922,Pwani,Operating
Bagamoyo,100221-1,Hospital,Public,-6.437181,38.907161,Pwani,Operating
KIMALANG´OMBE,115014-3,Dispensary,Public,-6.43617,38.91414,Pwani,Operating
KINAMA,122986-3,Health Laboratory,Private,-6.45501,38.88312,Pwani,Operating
MKENGE,105065-7,Dispensary,Public,-6.46415,38.5798,Pwani,Operating
BAOBAB,122598-6,Hospital,Private,-6.60669,39.06831,Pwani,Operating
FUKAYOSI,101157-6,Dispensary,Public,-6.41253,38.67403,Pwani,Operating
IMMA,113280-2,Health Laboratory,Private,-6.44336,38.90743,Pwani,Operating
FACGBF,114299-1,Health Laboratory,Private,-6.5077567,38.936295,Pwani,Operating
BUMA,113718-1,Dispensary,Public,-6.55814,38.90516,Pwani,Operating
EPIPHANY,101109-7,Dispensary,Private,-6.45382,38.89801,Pwani,Operating
WE CARE,113282-8,Health Laboratory,Private,-6.59041,39.05929,Pwani,Operating
Chiguluka,100790-5,Dispensary,Public,-6.327717,35.431264,Dodoma,Operating
CHALI IGONGO,122873-3,Dispensary,Public,-6.89036,35.12882,Dodoma,Operating
Chibelela,100775-6,Dispensary,Public,-6.403992,35.707712,Dodoma,Operating
MKAKATIKA,120408-0,Dispensary,Public,-5.93684,35.32307,Dodoma,Operating
Mindola,104941-0,Dispensary,Public,-5.886872,35.53162,Dodoma,Operating
CHIKOPELO,100803-6,Dispensary,Private,-6.309281,35.306476,Dodoma,Operating
Makanda,104076-5,Dispensary,Public,-5.73547,35.373164,Dodoma,Operating
Zanka,108407-8,Dispensary,Public,-5.844277,35.762478,Dodoma,Operating
Kongogo,103305-9,Dispensary,Public,-5.651559,35.608366,Dodoma,Operating
UHELELA,121410-5,Dispensary,Public,-5.90676,35.27831,Dodoma,Operating
Kigwe,102733-3,Health Center,Public,-6.095235,35.492293,Dodoma,Operating
MAYAMAYA,120355-3,Dispensary,Public,-5.80178,35.79985,Dodoma,Operating
Ibihwa,101437-2,Dispensary,Public,-6.005476,35.432887,Dodoma,Operating
Mwangaza,121914-6,Health Laboratory,Private,-5.92001,35.36999,Dodoma,Operating
Chali Isangha,100703-8,Dispensary,Public,-6.250782,35.234579,Dodoma,Operating
Lamaiti,103456-0,Dispensary,Public,-5.796436,35.490119,Dodoma,Operating
Nkhome,106517-6,Dispensary,Public,-6.339067,35.562813,Dodoma,Operating
CHONDE,120354-6,Dispensary,Public,-5.75511,35.44471,Dodoma,Operating
Chifutuka,100787-1,Health Center,Public,-6.602577,35.334406,Dodoma,Operating
Bahi Makulu,100228-6,Dispensary,Public,-6.049775,35.350335,Dodoma,Operating
Bahi,100227-8,Health Center,Public,-5.96258,35.312075,Dodoma,Operating
NYAHINGA,122895-6,Dispensary,Private,-6.60155,35.33391,Dodoma,Operating
Babayu,100215-3,Dispensary,Public,-5.638693,35.703269,Dodoma,Operating
Mpamantwa,105331-3,Dispensary,Public,-5.970328,35.385133,Dodoma,Operating
Mpinga,105376-8,Dispensary,Public,-6.160236,35.349807,Dodoma,Operating
Mphangwe,105346-1,Dispensary,Public,-6.629597,35.693211,Dodoma,Operating
Zejele,108412-8,Dispensary,Public,-6.39697,35.393963,Dodoma,Operating
EXCELLENT CARE,122899-8,Dispensary,Private,-6.37625,35.66677,Dodoma,Operating
Chimendeli,100818-4,Dispensary,Public,-6.11575,35.3945,Dodoma,Operating
CHIDILO,120356-1,Dispensary,Public,-5.32696,35.54974,Dodoma,Operating
Nondwa,106565-5,Dispensary,Public,-6.427501,35.333425,Dodoma,Operating
Mpalanga,105328-9,Dispensary,Public,-6.327047,35.497579,Dodoma,Operating
Chipanga,100834-1,Health Center,Public,-6.252359,35.358247,Dodoma,Operating
Mkondai,105100-2,Dispensary,Public,-5.844327,35.762479,Dodoma,Operating
Isangha,101885-2,Dispensary,Public,-6.37873,35.6661,Dodoma,Operating
Ibugule,101453-9,Dispensary,Public,-6.419891,35.557223,Dodoma,Operating
BAHI RC,100229-4,Dispensary,Private,-5.94521,35.312127,Dodoma,Operating
CHILUNGULU,123106-7,Dispensary,Public,-5.95107,35.66719,Dodoma,Operating
Bankolo,100315-1,Dispensary,Public,-5.838545,35.451914,Dodoma,Operating
Chikola,100799-6,Dispensary,Public,-6.178904,35.418429,Dodoma,Operating
Mundemu,105684-5,Health Center,Public,-5.925784,35.68504,Dodoma,Operating
NAGULO BAHI,123908-6,Dispensary,Public,-6.59721,35.62101,Dodoma,Operating
Mwitikira,106016-9,Health Center,Public,-6.526358,35.664168,Dodoma,Operating
Magaga,103891-8,Dispensary,Public,-6.498825,35.371446,Dodoma,Operating
Mtitaa,105574-8,Health Center,Public,-6.4376,35.5949,Dodoma,Operating
Nghulugano,106381-7,Dispensary,Public,-6.124589,35.433161,Dodoma,Operating
GBM MEDICAL DIAGNOSTIC,122633-1,Health Laboratory,Private,-6.37625,35.66677,Dodoma,Operating
Chali Makulu,100704-6,Dispensary,Public,-6.160224,35.249321,Dodoma,Operating
Kisima cha Ndege,111125-1,Dispensary,Public,-5.863401,35.696756,Dodoma,Operating
Lukali,103680-5,Dispensary,Public,-5.724434,35.50562,Dodoma,Operating
Ilindi,101741-7,Dispensary,Public,-5.948311,35.542796,Dodoma,Operating
Asanje,100194-0,Dispensary,Public,-5.734873,35.72171,Dodoma,Operating
Mzogole,106055-7,Dispensary,Public,-6.204733,35.532827,Dodoma,Operating
Mnkola,105253-9,Dispensary,Public,-5.90769,35.4416,Dodoma,Operating
Bahi,113978-1,Hospital,Public,-5.9368,35.3221,Dodoma,Operating
Msisi,105477-4,Dispensary,Public,-5.839891,35.625224,Dodoma,Operating
DUTWA,101045-3,Dispensary,Public,-2.49803,33.97798,Simiyu,Operating
CHUNGU CHA BAWAWA,121402-2,Dispensary,Public,-2.46671,34.13875,Simiyu,Operating
HALAWA,101298-8,Dispensary,Public,-2.47756,34.23553,Simiyu,Operating
MATONGO GEREZANI,109672-6,Dispensary,Public,-2.397773,34.17544,Simiyu,Operating
MASEWA,104397-5,Dispensary,Public,-2.34717,34.00426,Simiyu,Operating
MATONGO,104480-9,Health Center,Public,-2.35022,34.06758,Simiyu,Operating
SAKWE,107242-0,Dispensary,Public,-2.76766,33.85957,Simiyu,Operating
GASUMA,101185-7,Dispensary,Public,-2.52437,34.11574,Simiyu,Operating
IGEGU,101538-7,Dispensary,Public,-2.42796,33.961327,Simiyu,Operating
PUGU,112813-1,Dispensary,Public,-2.82271,33.84395,Simiyu,Operating
LULAYU,103702-7,Dispensary,Public,-2.60832,33.90207,Simiyu,Operating
NYAMIKOMA,106727-1,Dispensary,Public,-2.31327,33.96641,Simiyu,Operating
MWASINASI,105974-0,Dispensary,Public,-2.662,34.27333,Simiyu,Operating
BANEMHI,100306-0,Dispensary,Public,-2.62339,34.0455,Simiyu,Operating
MKOMBOZI JOSEPH,122924-4,Dispensary,Private,-2.64772,34.16134,Simiyu,Operating
NKOLOLO,106530-9,Dispensary,Public,-2.641446,34.160438,Simiyu,Operating
KASOLI,102443-9,Dispensary,Public,-2.57833,33.67857,Simiyu,Operating
MWASUBUYA,105976-5,Dispensary,Public,-2.60984,33.76779,Simiyu,Operating
WAZAZI DUTWA,109219-6,Dispensary,Private,-2.51146,33.96864,Simiyu,Operating
MWAMLAPA,105891-6,Dispensary,Public,-2.63624,34.66702,Simiyu,Operating
MISWAKI,104992-3,Dispensary,Public,-2.57921,33.80434,Simiyu,Operating
MWAMONDI,115080-4,Dispensary,Public,-2.55056,33.93831,Simiyu,Operating
IHUSI,101628-6,Dispensary,Public,-2.5861,34.25456,Simiyu,Operating
KILABELA,109221-2,Dispensary,Public,-2.54252,34.05027,Simiyu,Operating
ITUBUKILO,112814-9,Dispensary,Public,-2.80982,33.81453,Simiyu,Operating
SONGAMBELE,107541-5,Hospital,Private,-2.64311,34.16288,Simiyu,Operating
IKUNGULYAMBESHI,108781-6,Dispensary,Public,-2.57982,33.72621,Simiyu,Operating
SAPIWI,107300-6,Dispensary,Public,-2.37285,33.96306,Simiyu,Operating
NYAWA,106834-5,Dispensary,Public,-2.45944,34.13062,Simiyu,Operating
NYAMSWA,106746-1,Dispensary,Public,-2.6445,33.80844,Simiyu,Operating
IKUNGULYABASHASHI,101688-0,Dispensary,Public,-2.60944,33.94662,Simiyu,Operating
NGULYATI,114460-9,Health Laboratory,Private,-2.69458,33.839565,Simiyu,Operating
SALALILYA,120756-2,Dispensary,Public,-2.39285,34.12631,Simiyu,Operating
BARIADI,113642-3,Hospital,Public,-2.52512,33.96545,Simiyu,Operating
IKUNGULYANDILI,108832-7,Dispensary,Public,-2.58495,34.11266,Simiyu,Operating
GAMBOSI,101179-0,Dispensary,Public,-2.60745,33.84842,Simiyu,Operating
AICT IGAGANULWA,101046-1,Dispensary,Private,-2.517561,33.971206,Simiyu,Operating
DORCAS,112845-3,Maternity and Nursing Home,Private,-2.51146,33.968636,Simiyu,Operating
BOGOHE MEDICAL HEALTH,123684-3,Health Laboratory,Private,-2.64287,34.15771,Simiyu,Operating
GIBESHI,101211-1,Dispensary,Public,-2.43991,34.1967,Simiyu,Operating
NG'ALITA,111257-2,Dispensary,Public,-2.40845,34.01389,Simiyu,Operating
BYUNA,100667-5,Health Center,Public,-2.57252,34.15545,Simiyu,Operating
ISANGA,101878-7,Dispensary,Public,-2.83461,33.94178,Simiyu,Operating
MALAIKA,113108-5,Health Laboratory,Private,-2.802,33.98909,Simiyu,Operating
DR. MWIJAGE,101020-6,Clinic,Private,-2.79974,33.99396,Simiyu,Operating
NGULYATI,106437-7,Health Center,Public,NA,NA,Simiyu,Operating
MBITI,114884-0,Dispensary,Public,-2.74199,33.89573,Simiyu,Operating
DITIMA,100984-4,Dispensary,Public,-2.65201,33.87073,Simiyu,Operating
MAJAHIDA AICT,104042-7,Dispensary,Private,-2.83488,33.99275,Simiyu,Operating
POLICE,121076-4,Dispensary,Public,-2.78332,33.99271,Simiyu,Operating
SANUNGU,114887-3,Dispensary,Public,-2.76431,34.02303,Simiyu,Operating
Bariadi Medical,121859-3,Health Laboratory,Private,-2.80048,33.98706,Simiyu,Operating
KANUMBA,122103-5,Health Laboratory,Private,-2.80831,33.99129,Simiyu,Operating
KILULU,109705-4,Dispensary,Private,-2.85255,34.05811,Simiyu,Operating
AMANI,122114-2,Health Laboratory,Private,NA,NA,Simiyu,Operating
OLD MASWA,106893-1,Dispensary,Private,-2.68237,33.9943,Simiyu,Operating
SIMIYU,113724-9,Hospital,Public,-2.72458,33.99038,Simiyu,Operating
MATALE,104443-7,Dispensary,Public,-2.74411,34.02571,Simiyu,Operating
MADUHU,101010-7,Dispensary,Private,-2.80901,33.98333,Simiyu,Operating
BARIADI TOWN COUNCIL,100327-6,Hospital,Public,NA,33.99557,Simiyu,Operating
TUMAINI,113102-8,Health Laboratory,Private,-2.80033,33.98984,Simiyu,Operating
MWANALEGUMA,105897-3,Dispensary,Private,-2.80237,33.99191,Simiyu,Operating
BUNAMHALA CHUONI,100562-8,Dispensary,Public,-2.85696,34.01386,Simiyu,Operating
SIMIYU VISION CENTRE & OPTICAL HOUSE,110372-0,Clinic,Private,-2.80764,33.98415,Simiyu,Operating
NYAUMATA,106833-7,Dispensary,Public,-2.73737,33.96858,Simiyu,Operating
GUDUWE,108819-4,Dispensary,Public,-2.68351,33.92673,Simiyu,Operating
NYANGAKA,121591-2,Dispensary,Public,-2.78402,33.96432,Simiyu,Operating
EDEN,112338-9,Dispensary,Private,-2.80554,NA,Simiyu,Operating
BUPANDAGILA - SDA,100000-9,Dispensary,Private,-2.64496,34.01009,Simiyu,Operating
MWAKIBUGA,105828-8,Dispensary,Public,-2.5642,33.98331,Simiyu,Operating
MUUNGANO,105737-1,Health Center,Public,-2.797851,33.991817,Simiyu,Operating
GISADI,121592-0,Dispensary,Public,-2.64838,34.02814,Simiyu,Operating
IMALILO,101790-4,Dispensary,Public,-2.85536,33.97102,Simiyu,Operating
BARIADI-MAGEREZA,100328-4,Dispensary,Public,-2.75329,34.0046,Simiyu,Operating
NYANGOKOLWA,109673-4,Dispensary,Public,-2.74632,34.06121,Simiyu,Operating
KASOZIBAKAYA,102447-0,Dispensary,Public,-2.81081,31.68854,Kagera,Operating
KISENGA,121297-6,Dispensary,Public,NA,NA,Kagera,Operating
ST.CLARA,108750-1,Dispensary,Private,-2.87464,31.40698,Kagera,Operating
RUNAZI,107156-2,Dispensary,Public,-2.79683,31.43202,Kagera,Operating
MUBABA,122499-7,Dispensary,Public,-3.28336,31.46191,Kagera,Operating
BIHARAMULO,100361-5,Hospital,Private,-2.63359,31.31463,Kagera,Operating
RUGANZU,107132-3,Dispensary,Public,-3.11129,31.13704,Kagera,Operating
MIGANGO,121257-0,Dispensary,Public,NA,NA,Kagera,Operating
23KJ,108548-9,Dispensary,Public,-2.63157,31.33744,Kagera,Operating
TUMAINI,107921-9,Dispensary,Private,-3.03719,31.2224,Kagera,Operating
NYAMBALE,109827-6,Dispensary,Public,-2.86219,31.24802,Kagera,Operating
KITWECHEMBOGO,121045-9,Dispensary,Public,2.3452,31.1716,Kagera,Operating
BISIBO,121044-2,Health Center,Public,-2.68617,31.29776,Kagera,Operating
STAMIGOLD BIHARAMULO MINE,108547-1,Dispensary,Private,-3.20635,31.5419,Kagera,Operating
KISUMA,121080-6,Dispensary,Public,-2.80656,31.35844,Kagera,Operating
RUKARAGATA,107149-7,Health Center,Public,-2.65109,31.30928,Kagera,Operating
KIKOMAKOMA,102783-8,Dispensary,Public,-2.79507,31.47455,Kagera,Operating
MAVOTA,104500-4,Dispensary,Public,-3.23903,31.49292,Kagera,Operating
KASATO,121889-0,Dispensary,Public,NA,NA,Kagera,Operating
ST. OTTO,107619-9,Dispensary,Private,-2.66854,31.36311,Kagera,Operating
MBINDI,104615-0,Dispensary,Public,-2.89426,31.45491,Kagera,Operating
NGARARAMBE,109807-8,Dispensary,Public,-2.77828,31.00612,Kagera,Operating
KATAHOKA,102459-5,Dispensary,Public,-2.73532,31.39751,Kagera,Operating
KALENGE,102242-5,Health Center,Public,-3.15412,31.0654,Kagera,Operating
PLUMTREE,120252-2,Dispensary,Private,-3.03872,31.12216,Kagera,Operating
MAGEREZA,108604-0,Dispensary,Public,-2.63283,31.30494,Kagera,Operating
NEMBA,113580-5,Health Center,Public,-2.97433,31.37781,Kagera,Operating
NYAKAYENZE,121890-8,Dispensary,Public,NA,NA,Kagera,Operating
ISAMBARA,121043-4,Dispensary,Public,2.89231,31.55783,Kagera,Operating
KAGOMA,109779-9,Dispensary,Public,-2.794597,31.581383,Kagera,Operating
LUSAHUNGA,103747-2,Dispensary,Public,-2.90015,31.2009,Kagera,Operating
MAY DAY,108745-1,Health Center,Private,-2.63724,31.31327,Kagera,Operating
NYAMIGOGO,106723-0,Dispensary,Public,-2.78899,31.64557,Kagera,Operating
NYAMAHANGA,106691-9,Dispensary,Public,-2.69785,31.3262,Kagera,Operating
NYANTAKARA,106789-1,Dispensary,Public,-3.19253,31.36317,Kagera,Operating
NYAKANAZI,106660-4,Health Center,Public,-3.03559,31.20724,Kagera,Operating
RUPENDA,113998-9,Dispensary,Private,-2.79213,31.4722,Kagera,Operating
KANIHA,102326-6,Dispensary,Public,-3.28951,31.42389,Kagera,Operating
NYABUSOZI,106642-2,Health Center,Public,-2.83972,31.45816,Kagera,Operating
NYABUGOMBE,106637-2,Dispensary,Public,-2.63293,30.9391,Kagera,Operating
BIHARAMULO DISTRICT,114841-0,Hospital,Public,-2.63338,31.3082,Kagera,Operating
NYAKAHURA,106658-8,Health Center,Public,-2.8241,30.97326,Kagera,Operating
MKUNKWA,108725-3,Dispensary,Public,-3.26183,31.51445,Kagera,Operating
NYANGALAMILA,106762-8,Dispensary,Public,-2.41225,32.3661,Mwanza,Operating
BUHINDI,100476-1,Dispensary,Public,-2.4114,32.18441,Mwanza,Operating
KATWE,115159-6,Dispensary,Public,-2.41278,32.08883,Mwanza,Operating
LUHORONGOMA,103673-0,Dispensary,Public,-2.48201,32.20217,Mwanza,Operating
ILIGAMBA,101739-1,Dispensary,Public,-2.34736,32.20482,Mwanza,Operating
KALEBEZO,102231-8,Dispensary,Public,-2.50805,32.3578,Mwanza,Operating
MAISOME,104041-9,Dispensary,Public,-2.315821,32.056446,Mwanza,Operating
KOME,103288-7,Health Center,Public,-2.35778,32.48586,Mwanza,Operating
KASISA,102439-7,Dispensary,Public,-2.48777,32.51288,Mwanza,Operating
KIZIKU,124040-7,Health Laboratory,Private,NA,NA,Mwanza,Operating
KATOMA,102481-9,Dispensary,Public,-2.56798,32.3708,Mwanza,Operating
KABAGANGA,111741-5,Dispensary,Public,-2.39144,32.445216,Mwanza,Operating
BUKOKWA,100508-1,Dispensary,Public,-2.49416,32.43948,Mwanza,Operating
BUCHOSA,113707-4,Hospital,Public,-2.49277,32.26781,Mwanza,Operating
SUKUMA,107656-1,Dispensary,Public,-2.54851,32.40906,Mwanza,Operating
NYANZENDA,106796-6,Dispensary,Public,-2.60186,32.47925,Mwanza,Operating
BUPANDWA,100001-7,Dispensary,Public,-2.44682,32.1526,Mwanza,Operating
BUKOKWA,112111-0,Maternity and Nursing Home,Private,-2.495568,32.437126,Mwanza,Operating
KAFUNZO,102156-7,Dispensary,Public,-2.4575,32.1912,Mwanza,Operating
LUCHILI,103617-7,Dispensary,Public,-2.56158,32.51773,Mwanza,Operating
SOSWA,123599-3,Dispensary,Public,-2.38126,32.49454,Mwanza,Operating
LUGATA,103639-1,Dispensary,Public,-2.32513,32.44126,Mwanza,Operating
NYAMADOKE,106687-7,Dispensary,Public,-2.53882,32.2429,Mwanza,Operating
MWANGIKA,105931-0,Health Center,Public,-2.43153,32.1208,Mwanza,Operating
NYAKARILO,106661-2,Health Center,Public,-2.44465,32.44043,Mwanza,Operating
LUHARANYONGA,111751-4,Dispensary,Public,-2.452828,32.309749,Mwanza,Operating
KAHUNDA,102190-6,Dispensary,Private,-2.40044,32.06131,Mwanza,Operating
KAKOBE,108703-0,Health Center,Public,-2.37301,32.32772,Mwanza,Operating
KAYENZE,108478-9,Dispensary,Public,-2.5847,32.2779,Mwanza,Operating
HAMURUMO,101309-3,Dispensary,Public,-2.455664,32.541902,Mwanza,Operating
BUSEKESEKE,100593-3,Dispensary,Public,-2.5879,32.30946,Mwanza,Operating
KAMISA,115213-1,Dispensary,Public,-2.48277,32.47943,Mwanza,Operating
NYASHANA,115197-6,Dispensary,Public,-2.52841,32.37733,Mwanza,Operating
BULYAHILU,113670-4,Dispensary,Public,-2.397995,32.177544,Mwanza,Operating
NYEHUNGE,106839-4,Health Center,Public,-2.52668,32.3019,Mwanza,Operating
HURUMA,112372-8,Dispensary,Private,-2.524882,32.291692,Mwanza,Operating
BUHAMA,100466-2,Dispensary,Public,-2.344635,32.519715,Mwanza,Operating
NYAKASUNGWA,106664-6,Dispensary,Public,-2.5269,32.47693,Mwanza,Operating
NYAMABANO,122579-6,Dispensary,Public,-2.59101,32.52649,Mwanza,Operating
IGWANZOZU,115212-3,Dispensary,Public,-2.56234,32.45556,Mwanza,Operating
ILYAMCHELE,115179-4,Dispensary,Public,-2.36727,32.29372,Mwanza,Operating
IRENZA,115166-1,Dispensary,Public,-2.40036,32.33541,Mwanza,Operating
IZINDABO,115151-3,Dispensary,Public,-2.293114,32.456291,Mwanza,Operating
ITABAGUMBA,101948-8,Dispensary,Private,-2.28368,32.31454,Mwanza,Operating
MTOTO BEN,114392-4,Health Laboratory,Private,-2.52846,32.29682,Mwanza,Operating
LUSHAMBA,103755-5,Health Center,Public,-2.28931,32.24272,Mwanza,Operating
ITULABUSIGA,115176-0,Dispensary,Public,-2.41118,32.14311,Mwanza,Operating
LUMEYA,103712-6,Dispensary,Public,-2.45895,32.383202,Mwanza,Operating
BUSWELU,113672-0,Dispensary,Public,-2.607025,32.394665,Mwanza,Operating
BILULUMO,100368-0,Dispensary,Public,-2.47443,32.22141,Mwanza,Operating
KIBWIGWA,102640-0,Dispensary,Public,-4.42307,29.84052,Kigoma,Operating
NYAKIMUE,106675-2,Dispensary,Public,-4.47426,29.76856,Kigoma,Operating
ILAKOZE,121802-3,Dispensary,Private,-4.545405,29.903484,Kigoma,Operating
BUHIGWE,120359-5,Hospital,Public,-4.45217,29.89981,Kigoma,Operating
MUNANILA,105237-2,Dispensary,Public,-4.43656,29.78295,Kigoma,Operating
LEMBA,123038-2,Dispensary,Public,-4.38477,30.11342,Kigoma,Operating
HERI-MISSION,101356-4,Hospital,Private,-4.44468,29.7936,Kigoma,Operating
MWAYAYA,105985-6,Dispensary,Public,-4.47571,29.83673,Kigoma,Operating
KIBANDE,102573-3,Dispensary,Public,-4.37845,29.89961,Kigoma,Operating
KINAZI,102933-9,Dispensary,Public,-4.65894,29.83025,Kigoma,Operating
MULERA,105677-9,Health Center,Private,-4.42145,29.94203,Kigoma,Operating
HULEGE LIFE LINE,114451-8,Health Laboratory,Private,-4.5434785,29.902966,Kigoma,Operating
BUHIGWE,100475-3,Dispensary,Public,-4.45099,29.92598,Kigoma,Operating
MIGONGO,104877-6,Dispensary,Public,-4.24905,30.07818,Kigoma,Operating
NYAKAFUMBE,111781-1,Dispensary,Public,-4.52282,29.81447,Kigoma,Operating
KIRUNGU,103050-1,Dispensary,Public,-4.65436,29.87786,Kigoma,Operating
KITAMBUKA,103152-5,Dispensary,Public,-4.39427,29.82432,Kigoma,Operating
NYAMUGALI,106717-2,Dispensary,Public,-4.36932,29.97372,Kigoma,Operating
BUKUBA,120612-7,Dispensary,Public,-4.56025,29.91515,Kigoma,Operating
MUGERA,110232-6,Dispensary,Public,-4.25012,30.12902,Kigoma,Operating
KATUNDU,102495-9,Dispensary,Public,-4.25664,30.18938,Kigoma,Operating
KIGOGWE,102715-0,Dispensary,Public,-4.79004,29.85042,Kigoma,Operating
NYANKORONKO,106784-2,Dispensary,Public,-4.48819,29.88961,Kigoma,Operating
RUSABA,107169-5,Dispensary,Public,-4.62053,29.79363,Kigoma,Operating
NYARUBOZA,106803-0,Dispensary,Public,-4.55731,29.79658,Kigoma,Operating
MUHINDA,105652-2,Dispensary,Private,-4.52917,29.81316,Kigoma,Operating
KASUMO,102454-6,Dispensary,Private,-4.36226,30.10765,Kigoma,Operating
KILELEMA,102821-6,Dispensary,Public,-4.15583,30.12276,Kigoma,Operating
KIMARA,121816-3,Dispensary,Public,-4.67261,29.82121,Kigoma,Operating
BWERANKA,120492-4,Dispensary,Public,-4.39314,29.89414,Kigoma,Operating
DWT-MUBANGA,105615-9,Dispensary,Private,-4.56308,29.82024,Kigoma,Operating
MUSAGARA,105412-1,Dispensary,Private,-4.433321,29.79779,Kigoma,Operating
SONGAMBELE,107538-1,Dispensary,Public,-4.47753,29.97362,Kigoma,Operating
MUNANILA,114453-4,Health Laboratory,Private,-4.4376717,29.783022,Kigoma,Operating
MUNZEZE,108759-2,Health Center,Public,-4.72452,29.87131,Kigoma,Operating
JANDA,102074-2,Health Center,Public,-4.62413,29.87331,Kigoma,Operating
MUNYEGERA,105696-9,Dispensary,Public,-4.44831,30.03428,Kigoma,Operating
KAJANA,102197-1,Health Center,Public,-4.33145,30.14784,Kigoma,Operating
NYAMIHANGA,121815-5,Dispensary,Public,-4.72095,29.82409,Kigoma,Operating
NYAMABUYE,106686-9,Dispensary,Private,-4.56446,29.894,Kigoma,Operating
FARAJA,111780-3,Dispensary,Private,-4.43578,29.78574,Kigoma,Operating
BIHARU,100362-3,Health Center,Private,-4.32506,30.01874,Kigoma,Operating
MUYAMA,105742-1,Health Center,Public,-4.32675,30.07465,Kigoma,Operating
MWEMAGE,105995-5,Health Center,Private,-1.48204,31.61389,Kagera,Operating
DANIEL,121985-6,Health Laboratory,Private,-1.47378,31.74534,Kagera,Operating
BWIZANDURU,100665-9,Dispensary,Public,-1.39027,31.7639,Kagera,Operating
KIBIRIZI,102606-1,Dispensary,Public,-1.609518,31.41844,Kagera,Operating
KYAMALANGE,103422-2,Dispensary,Public,-1.047223,31.849947,Kagera,Operating
BUTULAGE,110962-8,Dispensary,Public,-1.490124,31.498768,Kagera,Operating
IZIMBYA,102053-6,Hospital,Private,-1.55155,31.45841,Kagera,Operating
KISHANJE,103098-0,Health Center,Public,-1.11223,31.8409,Kagera,Operating
IBOSA,101448-9,Dispensary,Public,-1.24665,31.8415,Kagera,Operating
BUGURUKA,114795-8,Dispensary,Public,-1.45831,31.80251,Kagera,Operating
BUTAINAMWA,100617-0,Dispensary,Private,-1.34749,31.65335,Kagera,Operating
RUBALE,107122-4,Health Center,Public,-1.59787,31.5202,Kagera,Operating
MARUKU,104358-7,Health Center,Public,-1.40635,31.7931,Kagera,Operating
OMUBWEYA,106924-4,Dispensary,Public,-1.60316,31.3784,Kagera,Operating
MASHULE,108669-3,Dispensary,Public,-1.44342,31.393907,Kagera,Operating
NYAKABANGA,108670-1,Dispensary,Public,-1.565138,31.543173,Kagera,Operating
BUZI,100636-0,Dispensary,Public,-1.159967,31.812702,Kagera,Operating
IBWERA,101461-2,Dispensary,Public,-1.48137,31.6308,Kagera,Operating
KIKOMELO,108672-7,Dispensary,Public,-1.635313,31.526728,Kagera,Operating
BULINDA,100540-4,Dispensary,Public,-1.427437,31.771754,Kagera,Operating
KABALE,102126-0,Dispensary,Public,-1.33273,31.7545,Kagera,Operating
RUHUNGA,107144-8,Dispensary,Public,-1.47617,31.4377,Kagera,Operating
NSHESHE,106581-2,Dispensary,Public,-1.68484,31.4654,Kagera,Operating
NTOMA,108712-1,Dispensary,Private,-1.41701,31.76701,Kagera,Operating
KASHOZI,102436-3,Health Center,Private,-1.22549,31.80813,Kagera,Operating
KATARE,102466-0,Dispensary,Public,-1.08723,31.8374,Kagera,Operating
NYAKIBIMBILI,106674-5,Dispensary,Public,-1.442801,31.606234,Kagera,Operating
KISHOGO,103104-6,Dispensary,Public,-1.3859,31.6444,Kagera,Operating
RUGAZE,107134-9,Dispensary,Public,-1.581535,31.428998,Kagera,Operating
BULILA,108707-1,Dispensary,Private,-1.478356,31.744902,Kagera,Operating
BUJUGO,108671-9,Dispensary,Public,-1.40037,31.71574,Kagera,Operating
RWAMULUMBA,107197-6,Dispensary,Public,-1.3493,31.7434,Kagera,Operating
KYAMULAILE,103423-0,Dispensary,Public,-1.40825,31.4019,Kagera,Operating
KANAZI,102305-0,Health Center,Public,-1.46256,31.7376,Kagera,Operating
CARE AND CURE MEDICAL,121763-7,Dispensary,Private,-1.3981309,31.499885,Kagera,Operating
BUSHASHA,100597-4,Dispensary,Public,-1.07657,31.805,Kagera,Operating
MUGAJWALE,122993-9,Dispensary,Public,-1.46801,31.46222,Kagera,Operating
KIHUMULO,102751-5,Dispensary,Public,-1.496895,31.39451,Kagera,Operating
Amani,121427-9,Dispensary,Private,-1.45828,31.75201,Kagera,Operating
IKUNYU,101692-2,Dispensary,Public,-1.50718,31.5718,Kagera,Operating
MIKONI,104910-5,Dispensary,Public,-1.54217,31.5863,Kagera,Operating
KAAGYA,102123-7,Dispensary,Public,-1.161097,31.855456,Kagera,Operating
IGOMBE,122907-9,Dispensary,Public,-1.25226,31.81001,Kagera,Operating
KALEMA,102233-4,Dispensary,Public,-1.2148,31.82606,Kagera,Operating
BUKOBA DISTRICT,114500-2,Hospital,Public,-1.44538,31.72268,Kagera,Operating
KAIBANJA,102191-4,Dispensary,Public,-1.418657,31.573011,Kagera,Operating
KATOMA,102480-1,Dispensary,Public,-1.29175,31.7616,Kagera,Operating
KATORO,102485-0,Health Center,Public,-1.39549,31.4958,Kagera,Operating
IHUNGO SEC. SCHOOL,101627-8,Dispensary,Public,-1.30346,31.813237,Kagera,Operating
MAGEREZA,103927-0,Dispensary,Public,-1.33592,31.81606,Kagera,Operating
Balozi Medical Laboratory,121463-4,Health Laboratory,Private,NA,NA,Kagera,Operating
SABINA AND GLORY,123259-4,Health Laboratory,Private,-1.30522,31.77882,Kagera,Operating
BUKOBA MUNICIPAL,111167-3,Hospital,Public,-1.30951,31.79622,Kagera,Operating
BALOZI,121949-2,Health Laboratory,Private,-1.30088,31.85286,Kagera,Operating
MESO VOICE OF VICTORY,123350-1,Dispensary,Private,-1.32643,31.80498,Kagera,Operating
PRINMAT EKISHA,108900-2,Maternity Home,Private,-1.32392,31.81978,Kagera,Operating
BUKOBA,121826-2,Clinic,Private,1.33394,31.8192,Kagera,Operating
KAGEMU,102158-3,Dispensary,Public,-1.35568,31.801602,Kagera,Operating
BLC,123016-8,Health Laboratory,Private,-1.16314,31.48334,Kagera,Operating
BUKOBA SEC. SCHOOL,100506-5,Dispensary,Public,-1.3326,31.812464,Kagera,Operating
AGA KHAN,113429-5,Clinic,Private,-1.33075,31.81224,Kagera,Operating
NEW VISION,113041-8,Health Laboratory,Private,-1.33233,31.808547,Kagera,Operating
BUKOBA,113430-3,Clinic,Private,-1.33431,31.81224,Kagera,Operating
COSAD,111166-5,Clinic,Private,-1.32812,31.81949,Kagera,Operating
BUYEKERA POLICELINE,100630-3,Dispensary,Public,-1.33794,31.811484,Kagera,Operating
PASAKA,123495-4,Dispensary,Private,-1.34609,31.80332,Kagera,Operating
HINDU UNION,101371-3,Dispensary,Private,-1.33158,31.81227,Kagera,Operating
ALYSSA HEALTH LABORATORY,121948-4,Health Laboratory,Private,-1.33804,31.80776,Kagera,Operating
TUMUSIIME,123261-0,Health Laboratory,Private,-1.30522,31.77882,Kagera,Operating
ST. JOHN,111871-0,Dispensary,Private,-1.34183,31.81246,Kagera,Operating
JUMA JACOB,122074-8,Health Laboratory,Private,NA,NA,Kagera,Operating
KASHAI,102424-9,Dispensary,Public,-1.32189,31.81814,Kagera,Operating
BUKOBA,102162-5,Hospital,Public,-1.333837,31.809633,Kagera,Operating
MPINZILE,123763-5,Dispensary,Private,-1.32222,31.77457,Kagera,Operating
MUTEGEKI,113040-0,Health Laboratory,Private,-1.32917,31.8124,Kagera,Operating
AL ABBAS DENTAL,114349-4,Clinic,Private,-1.32539,31.81136,Kagera,Operating
TRS HEALTH CLUB,115115-8,Physiotherapy Clinic,Private,-1.32538,31.81135,Kagera,Operating
St. Therese Bukoba,107634-8,Health Center,Private,-1.32732,31.81132,Kagera,Operating
LULU,113039-2,Health Laboratory,Private,-1.32559,31.817284,Kagera,Operating
NYANGA,112248-0,Dispensary,Public,-1.29186,31.7813,Kagera,Operating
FARAJA,112841-2,Dispensary,Private,-1.32524,31.81731,Kagera,Operating
NUMBER ONE DENTAL SERVICE CLINIC,115037-4,Clinic,Private,-1.33186,31.81174,Kagera,Operating
THEREZA MEMORIAL,124137-1,Clinic,Private,-1.33797,31.80804,Kagera,Operating
TRINITY MEDICAL LABORATORY,121956-7,Health Laboratory,Private,-1.33201,31.79292,Kagera,Operating
KASHAI,113037-6,Health Laboratory,Private,-1.32191,31.81808,Kagera,Operating
BUHEMBE,100474-6,Dispensary,Public,-1.286881,31.807694,Kagera,Operating
TRINITY MEDICAL  LABORATORY,114371-8,Health Laboratory,Private,-1.32726,31.80676,Kagera,Operating
KAIZIREGE AND KEMEBOS SCHOOLS,123504-3,Dispensary,Private,-1.36635,31.79271,Kagera,Operating
KASHAI,121788-4,Health Center,Public,-1.32781,31.81257,Kagera,Operating
Hasseki,122068-0,Health Laboratory,Private,-1.32015,31.78925,Kagera,Operating
RWAMISHENYE,107193-5,Health Center,Public,-1.32241,31.79518,Kagera,Operating
KAHORORO,102186-4,Dispensary,Public,-1.30298,31.84233,Kagera,Operating
PASAKA,123260-2,Health Laboratory,Private,-1.34609,31.80332,Kagera,Operating
KJ 21,103262-2,Dispensary,Public,-1.32723,31.79714,Kagera,Operating
BUKOBA EYE CENTRE,121640-7,Clinic,Private,-1.33181,31.80626,Kagera,Operating
SAMI,113038-4,Health Laboratory,Private,NA,31.80821,Kagera,Operating
KIBETA,121901-3,Dispensary,Public,-1.34222,31.79878,Kagera,Operating
MFH,114348-6,Hospital,Private,-1.32175,31.81227,Kagera,Operating
MUGEZA MSETO,105630-8,Dispensary,Public,-1.29042,31.8347,Kagera,Operating
WEMA,111947-8,Clinic,Private,-1.33079,31.80549,Kagera,Operating
UFUFUO,110959-4,Health Center,Private,-1.3536300000000001,31.79618,Kagera,Operating
IJUGANYONDO,101636-9,Dispensary,Public,-1.36653,31.793736,Kagera,Operating
ZAMZAM,108406-0,Health Center,Public,-1.32767,31.812825,Kagera,Operating
ALINDA,113047-5,Health Laboratory,Private,-1.32175,31.793918,Kagera,Operating
EDSON AND TIMOTHY,113045-9,Health Laboratory,Private,-1.32416,31.81691,Kagera,Operating
BUKOBA TOWN,108903-6,Health Center,Private,-1.33057,31.81303,Kagera,Operating
FFU NSHAMBYA,106578-8,Dispensary,Public,-1.31601,31.800299,Kagera,Operating
RUGAMBWA,107129-9,Dispensary,Public,-1.34692,31.80458,Kagera,Operating
BUKOMBE,100511-5,Hospital,Public,-3.461566,31.89497,Geita,Operating
SILAMILA,122300-7,Dispensary,Public,-3.39749,31.89132,Geita,Operating
MARANNATHA,123351-9,Dispensary,Private,-53.33743,31.52304,Geita,Operating
UYOVU,108233-8,Health Center,Public,-3.33583,31.52579,Geita,Operating
KAPELA MEDICAL,123677-7,Health Laboratory,Private,-3.47421,31.90101,Geita,Operating
BICHENYERI,123530-8,Health Laboratory,Private,-3.33838,31.52251,Geita,Operating
LYAMBAMGONGO,120698-6,Health Center,Public,-3.49204,31.98514,Geita,Operating
NASILULUMA,122490-6,Dispensary,Public,-3.41782,31.42378,Geita,Operating
JOHN MEDICAL LABORATORY,120504-6,Health Laboratory,Private,-3.3407,31.526716,Geita,Operating
MADIBA,122200-9,Health Laboratory,Private,-3.4587897,31.9029825,Geita,Operating
BUGANDO,100437-3,Dispensary,Public,-3.59509,31.95286,Geita,Operating
NG'ANZO,122299-1,Dispensary,Public,-3.35389,31.80087,Geita,Operating
WAZAZI NKOMO,109197-4,Dispensary,Private,-3.46442,31.89867,Geita,Operating
IYOGELO,102042-9,Dispensary,Public,-3.548291,31.973681,Geita,Operating
KAGWE,120700-0,Dispensary,Public,-3.46335,32.0175,Geita,Operating
IKALANGA,122318-9,Dispensary,Public,-3.62419,32.06107,Geita,Operating
BULEGA,100531-3,Health Center,Public,-3.29792,31.78295,Geita,Operating
MIYENZE,109727-8,Dispensary,Public,-3.36671,31.93462,Geita,Operating
NAMONGE,106149-8,Health Center,Public,-3.40264,31.44949,Geita,Operating
BULANGWA,114503-6,Dispensary,Public,-3.43079,31.91382,Geita,Operating
WAZAZI MSONGA,108343-5,Dispensary,Private,-3.46685,31.89468,Geita,Operating
IMANI,122189-4,Health Laboratory,Private,-3.2349,31.27055,Geita,Operating
BUTONDO,112895-8,Health Laboratory,Private,-3.3388517,31.521164,Geita,Operating
MSONGA,109866-4,Health Center,Public,-3.39267,31.02364,Geita,Operating
REHOBOTH,121571-4,Health Laboratory,Private,NA,NA,Geita,Operating
BUKOMBE,100510-7,Dispensary,Public,-3.514748,32.048177,Geita,Operating
BUSINDA,112451-0,Dispensary,Public,-3.45616,31.942990000000002,Geita,Operating
NAMPALAHALA,120702-6,Dispensary,Public,-3.24094,31.64623,Geita,Operating
CHARLES KULWA MEMORIAL,104735-6,Hospital,Private,-3.33802,31.5233,Geita,Operating
MSASANI,105442-8,Dispensary,Public,-3.6396,31.9888,Geita,Operating
BAKWATA NK,109777-3,Dispensary,Private,-3.46712,31.89536,Geita,Operating
TMRC LYOBAHIKA,111672-2,Dispensary,Private,-53.34201,31.52793,Geita,Operating
USHIROMBO,108177-7,Health Center,Public,-3.47096,31.90028,Geita,Operating
BUFANKA,109809-4,Health Center,Public,-3.60492,31.98492,Geita,Operating
IKUZI,101696-3,Dispensary,Public,-3.38463,31.5851,Geita,Operating
UYOVU PRINMAT,111788-6,Maternity Home,Private,-3.33773,31.52282,Geita,Operating
NAMALANDULA,120699-4,Dispensary,Public,-3.44792,31.40491,Geita,Operating
SAN PIO,107667-8,Hospital,Private,-3.45488,31.91531,Geita,Operating
KITILA,121760-3,Dispensary,Private,-3.345515,31.526063,Geita,Operating
KIZIBA,122488-0,Dispensary,Public,-3.50923,31.88826,Geita,Operating
BUGELENGA,100449-8,Dispensary,Public,-3.64663,NA,Geita,Operating
KIVILICHA,111005-5,Dispensary,Public,-4.95366,38.35743,Tanga,Operating
MZIASAA,120981-6,Dispensary,Public,4.8732,38.4689,Tanga,Operating
MAYO KISIWANI,104521-0,Dispensary,Public,-4.86259,38.4703,Tanga,Operating
ST. RAPHAEL,107627-2,Dispensary,Private,-4.86278,38.37471,Tanga,Operating
KWEHANGALA,103399-2,Dispensary,Public,-4.8555,38.43845,Tanga,Operating
MAVULUI,111007-1,Dispensary,Public,-4.95384,38.35745,Tanga,Operating
BAGA,100220-3,Dispensary,Public,-4.7721,38.42585,Tanga,Operating
VUGA,108280-9,Dispensary,Public,-4.90628,38.33839,Tanga,Operating
MSAMAKA,105419-6,Dispensary,Public,-4.97465,38.50863,Tanga,Operating
Tamota,107731-2,Health Center,Public,-4.93802,38.49394,Tanga,Operating
Togotwe,107856-7,Dispensary,Public,-4.86861,38.4656,Tanga,Operating
MBELEI,104590-5,Dispensary,Public,-4.83127,38.3985,Tanga,Operating
BUMBA,109848-2,Dispensary,Public,-4.73123,38.63456,Tanga,Operating
BUMBULI,123381-6,Hospital,Public,-4.85321,38.42572,Tanga,Operating
SONI,107550-6,Health Center,Public,-4.84525,38.36966,Tanga,Operating
NKAMAI,123415-2,Dispensary,Public,-4.91405,34.32222,Tanga,Operating
MGWASHI,104796-8,Health Center,Public,-4.77283,38.49659,Tanga,Operating
LWANDAI,120983-2,Dispensary,Public,4.8732,38.4689,Tanga,Operating
KWEMKOMOLE,103410-7,Dispensary,Public,-4.82782,38.56577,Tanga,Operating
MBUZII,104676-2,Dispensary,Public,-4.85714,38.34227,Tanga,Operating
KWENDOGHOI,120984-0,Dispensary,Public,4.8732,38.4689,Tanga,Operating
MPONDE VUGA,105390-9,Dispensary,Public,-4.91961,38.41085,Tanga,Operating
BUMBULI MISSION,100556-0,Hospital,Private,-4.86375,38.47069,Tanga,Operating
MAHEZANGULU,104020-3,Dispensary,Public,-4.92279,38.52057,Tanga,Operating
MKAALIE,123403-8,Dispensary,Public,-6.36902,34.88888,Tanga,Operating
KWADOE,122483-1,Dispensary,Public,-4.82717,38.43313,Tanga,Operating
FUNTA,101162-6,Dispensary,Public,-4.90501,38.45896,Tanga,Operating
KWEMISAMBIA,122969-9,Dispensary,Public,-4.75478,38.78057,Tanga,Operating
KWANGURUWE,120960-0,Dispensary,Public,-4.8732,38.4689,Tanga,Operating
MPALALU,111006-3,Dispensary,Public,-4.94185,38.47104,Tanga,Operating
MAKUTINI,122166-2,Dispensary,Public,-4.4711,38.3115,Tanga,Operating
KIDUNDAI,121384-2,Dispensary,Public,-4.45525,38.38183,Tanga,Operating
MILINGANO,104928-7,Health Center,Public,-4.72056,38.59908,Tanga,Operating
NKONGOI,106537-4,Dispensary,Private,-4.77699,38.52769,Tanga,Operating
MAYO,104520-2,Dispensary,Public,-4.84177,38.51515,Tanga,Operating
KIHITU,120980-8,Dispensary,Public,4.8732,38.4689,Tanga,Operating
NAMHULA,106156-3,Dispensary,Public,-2.07971,33.462,Mara,Operating
MARAMBEKA,104311-6,Dispensary,Public,-1.87716,34.0493,Mara,Operating
NANSIMO,106190-2,Dispensary,Public,-2.1495,33.3469,Mara,Operating
MANCHIMWERU,104217-5,Dispensary,Public,-1.87143,34.287145,Mara,Operating
KARUKEKERE,102387-8,Dispensary,Public,-2.06709,33.5447,Mara,Operating
MWIRURUMA,106025-0,Dispensary,Public,-2.03218,33.428095,Mara,Operating
SANZATE,113908-8,Dispensary,Public,-1.91419,34.15864,Mara,Operating
SALAMA A,107245-3,Dispensary,Public,-1.91494,34.1124,Mara,Operating
KASUGUTI,102450-4,Health Center,Public,-2.16534,33.5821,Mara,Operating
KASAHUNGA,102391-0,Health Center,Public,-2.15067,33.5112,Mara,Operating
MWITENDE,109338-4,Dispensary,Public,-2.1393,33.3468,Mara,Operating
KIHUMBU,109748-4,Dispensary,Public,-1.98414,34.10733,Mara,Operating
IKIZU,101652-6,Health Center,Public,-1.90469,34.0215,Mara,Operating
ISANJU,120704-2,Health Center,Public,-2.00168,33.44495,Mara,Operating
IRAMBA,101847-2,Dispensary,Public,-1.97744,33.3989,Mara,Operating
ST. MARY'S,102584-0,Hospital,Private,-2.15445,33.46762,Mara,Operating
SALAMA KATI,107246-1,Dispensary,Public,-1.87451,34.1055,Mara,Operating
MEKOMARIRO,104724-0,Dispensary,Public,-1.8351,34.203,Mara,Operating
NAMALAMA,109689-0,Dispensary,Public,-2.09027,33.30784,Mara,Operating
MARIWANDA,104350-4,Dispensary,Public,-1.97528,34.1439,Mara,Operating
KIRORELI,123087-9,Dispensary,Public,-1.95743,33.98743,Mara,Operating
BUNDA DC,114370-0,Hospital,Public,-1.90809,34.04835,Mara,Operating
BUSAMBARA,100583-4,Dispensary,Public,-2.14896,33.4312,Mara,Operating
MUGETA,105629-0,Health Center,Public,-1.93391,34.2188,Mara,Operating
BUKAMA,113915-3,Dispensary,Public,-1.91944,34.06152,Mara,Operating
IGUNDU,101587-4,Dispensary,Public,-2.07092,33.3592,Mara,Operating
NERUMA,109623-9,Dispensary,Public,-2.11835,33.49466,Mara,Operating
NAFUBA,106067-2,Dispensary,Public,-2.17957,33.3014,Mara,Operating
NAMALEBE,113913-8,Dispensary,Public,-2.11006,33.43333,Mara,Operating
KURUSANGA,103344-8,Dispensary,Public,-1.85162,34.1532,Mara,Operating
KAMBUBU,109756-7,Dispensary,Public,-1.93945,33.99943,Mara,Operating
NYANGERE,106767-7,Dispensary,Public,-1.96326,34.0114,Mara,Operating
SUNSI,107678-5,Dispensary,Public,-2.1361,33.2122,Mara,Operating
BULAMBA,100526-3,Dispensary,Public,-2.13702,33.6273,Mara,Operating
RAGATA,123086-1,Dispensary,Public,-2.12983,33.58118,Mara,Operating
HUNYARI,101404-2,Health Center,Public,-1.98519,34.07844,Mara,Operating
SOZIA,122933-5,Dispensary,Public,-2.28803,33.33589,Mara,Operating
SARAWE,107302-2,Dispensary,Public,-1.93472,34.0297,Mara,Operating
KISORYA,103134-3,Health Center,Public,-2.10852,33.2195,Mara,Operating
BUKAMA SDA,100496-9,Dispensary,Private,-1.917562,34.053974,Mara,Operating
NYABURUNDU,106641-4,Dispensary,Public,-1.83478,34.0962,Mara,Operating
BUNDA TOWN COUNCIL,122471-6,Hospital,Public,-2.01161,33.49351,Mara,Operating
BUKORE,109684-1,Dispensary,Public,-1.97879,33.96073,Mara,Operating
WARIKU,102325-8,Dispensary,Public,-1.93633,33.7778,Mara,Operating
CHRIS-MALL AFRICANA,111884-3,Dispensary,Private,-2.02407,33.86643,Mara,Operating
KUNGOMBE,120688-7,Dispensary,Public,-1.97186,33.83393,Mara,Operating
MARY IMMACULATE,122963-2,Dispensary,Private,-2.02665,33.83764,Mara,Operating
WARIKU,121306-5,Health Center,Public,-1.93808,33.80002,Mara,Operating
MIHALE,104886-7,Dispensary,Public,-2.01715,34.0341,Mara,Operating
KINYAMBWIGA,109343-4,Dispensary,Public,-2.01811,33.71508,Mara,Operating
MANYAMANYAMA,104277-9,Hospital,Public,-1.97732,33.85881,Mara,Operating
NEEMA,123241-2,Dispensary,Private,-2.02465,33.87049,Mara,Operating
MISISI,121363-6,Dispensary,Public,-1.99311,33.92095,Mara,Operating
BITARAGURU,109615-5,Dispensary,Public,-1.93991,33.85009,Mara,Operating
GUTA,101277-2,Dispensary,Public,-2.0741,33.7345,Mara,Operating
BOMA,100393-8,Dispensary,Public,-2.02401,33.8627,Mara,Operating
Bhoke,109869-8,Dispensary,Private,-2.02272,33.87372,Mara,Operating
SAZIRA,107321-2,Dispensary,Public,-2.0038,33.8984,Mara,Operating
KUNZUGU,103340-6,Dispensary,Public,-2.05159,33.9156,Mara,Operating
BUNDA,100566-9,Hospital,Private,-2.02994,33.8755,Mara,Operating
AICT BUNDA,100061-1,Dispensary,Private,-2.01881,33.872,Mara,Operating
KABASA,102137-7,Dispensary,Public,-1.97002,33.8146,Mara,Operating
MCHARO,104688-7,Dispensary,Public,-2.01478,33.9459,Mara,Operating
BUNDA MAGEREZA,109824-3,Dispensary,Public,-1.995047,33.871788,Mara,Operating
UKOMBOZI,108055-5,Dispensary,Private,-2.04385,33.87136,Mara,Operating
AGA KHAN,113635-7,Clinic,Private,-2.02327,33.87325,Mara,Operating
NYAMUNYU,121301-6,Dispensary,Public,-1.97877,33.90438,Mara,Operating
CHANGUGE,109377-2,Dispensary,Public,-2.17141,33.94611,Mara,Operating
NYAMATOKE,106704-0,Dispensary,Public,-2.04034,34.0007,Mara,Operating
RUPA MEMORIAL,123320-4,Hospital,Private,-2.01431,33.87336,Mara,Operating
FARAJA,109457-2,Maternity Home,Private,-2.02753,33.86872,Mara,Operating
AMANI,120292-8,Dispensary,Private,-2.01451,33.86136,Mara,Operating
BUNDA,100565-1,Health Center,Public,-2.01727,33.8704,Mara,Operating
KISANGWA,115026-7,Dispensary,Public,-1.99401,33.96238,Mara,Operating
Tumaini,123913-6,Dispensary,Private,NA,NA,Simiyu,Operating
BUSEGA,113873-4,Hospital,Public,-2.36731,33.59466,Simiyu,Operating
SMC,123468-1,Dispensary,Private,-2.39182,33.67601,Simiyu,Operating
MWAMAGIGISI,105848-6,Dispensary,Public,-2.37716,33.7974,Simiyu,Operating
NYAMIKOMA,106726-3,Dispensary,Public,-2.321909,33.671744,Simiyu,Operating
NYALUHANDE,106681-0,Dispensary,Public,-2.50562,33.6114,Simiyu,Operating
MWASAMBA,105964-1,Dispensary,Public,-2.315022,33.809959,Simiyu,Operating
LUTUBIGA,103774-6,Dispensary,Public,-2.30924,33.8682,Simiyu,Operating
MUNGUKWANZA,110826-5,Maternity Home,Private,-2.24737,33.84419,Simiyu,Operating
MWANHALE,105936-9,Dispensary,Public,-2.3821,33.8914,Simiyu,Operating
IJIHA,101633-6,Dispensary,Public,-2.43772,33.52412,Simiyu,Operating
HOPE,123936-7,Dispensary,Private,-2.26259,33.85674,Simiyu,Operating
ZAMAX,113105-1,Health Laboratory,Private,-2.24201,33.85366,Simiyu,Operating
CHAMUGASA,111307-5,Dispensary,Public,-2.291072,33.755687,Simiyu,Operating
SANGA,120812-3,Dispensary,Public,-2.53873,33.799995,Simiyu,Operating
BADUGU,100218-7,Dispensary,Public,-2.480091,33.678768,Simiyu,Operating
MWAMJULILA,105889-0,Dispensary,Public,-2.4334,33.7243,Simiyu,Operating
MWANANGI,105903-9,Dispensary,Private,-2.43651,33.5675,Simiyu,Operating
BULIMA,100539-6,Dispensary,Private,-2.374964,33.562881,Simiyu,Operating
MWAMANYILI,113876-7,Dispensary,Public,-2.4563,33.540085,Simiyu,Operating
NGASAMO,106361-9,Dispensary,Public,-2.490219,33.845288,Simiyu,Operating
KILOLELI,102860-4,Health Center,Public,-2.4476,33.5433,Simiyu,Operating
BUSHIGWAMHALA,100600-6,Dispensary,Public,-2.339277,33.755692,Simiyu,Operating
LAMADI,110994-1,Dispensary,Private,-2.24559,33.84883,Simiyu,Operating
GININIGA,101220-2,Dispensary,Public,-2.465917,33.761096,Simiyu,Operating
NASSA,106210-8,Health Center,Public,-2.37366,33.5849,Simiyu,Operating
LUKUNGU,103696-1,Health Center,Public,-2.22202,33.8605,Simiyu,Operating
MENONITE LAMADI,104736-4,Dispensary,Private,-2.247209,33.847708,Simiyu,Operating
TUMAINI,114691-9,Dispensary,Private,-2.24834,33.848313,Simiyu,Operating
NURU,123683-5,Health Laboratory,Private,-2.36848,33.94835,Simiyu,Operating
SOTCO,123685-0,Health Laboratory,Private,-2.24369,33.84994,Simiyu,Operating
MWABULUGU,113875-9,Dispensary,Public,-2.267687,33.81369,Simiyu,Operating
IGALUKILO,101522-1,Health Center,Public,-2.41046,33.7748,Simiyu,Operating
JAIDEN,114713-1,Dispensary,Private,-2.96147,34.13661,Simiyu,Operating
KALEMELA,102237-5,Dispensary,Public,-2.29663,33.7128,Simiyu,Operating
Mkula,105123-4,Hospital,Private,-2.33488,33.8758,Simiyu,Operating
MALILI,104175-5,Dispensary,Public,-2.443997,33.806294,Simiyu,Operating
ZEMAX,122107-6,Health Laboratory,Private,-2.24262,33.853245,Simiyu,Operating
MAX,123686-8,Health Laboratory,Private,-2.24676,33.85004,Simiyu,Operating
SHIGALA,107412-9,Dispensary,Public,-2.39462,33.6805,Simiyu,Operating
MWAMIGONGWA,105883-3,Dispensary,Public,-2.42349,33.85899,Simiyu,Operating
KASIMINGI,114455-9,Health Laboratory,Private,-2.32134,33.6681,Simiyu,Operating
KIJERESHI,102757-2,Dispensary,Public,-2.313621,33.920322,Simiyu,Operating
NSOSO,121700-9,Dispensary,Public,-9.31178,33.80874,Mbeya,Operating
NSANGA,121439-4,Dispensary,Public,-9.43813,33.82472,Mbeya,Operating
MWAKALELI,105825-4,Health Center,Public,-9.15035,33.79253,Mbeya,Operating
LUTEBA,103765-4,Dispensary,Public,-9.12684,33.81125,Mbeya,Operating
KIFUNDA,112212-6,Health Center,Public,-9.30494,33.89998,Mbeya,Operating
NTABA,113340-4,Health Center,Public,-9.42098,33.85205,Mbeya,Operating
LUPATA,103732-4,Dispensary,Public,-9.300961,33.837438,Mbeya,Operating
KASYABONE,102458-7,Dispensary,Private,-9.39949,33.86813,Mbeya,Operating
MWAKALELI LUTHERAN,105826-2,Dispensary,Private,-9.1597,33.81815,Mbeya,Operating
MPANDA,105334-7,Dispensary,Public,-9.28714,33.80819,Mbeya,Operating
BUMBIGI,121354-5,Dispensary,Public,-9.16595,33.83865,Mbeya,Operating
KITEMA,121441-0,Dispensary,Public,-9.29368,33.77464,Mbeya,Operating
IKAMA,101637-7,Dispensary,Public,-9.26181,33.82516,Mbeya,Operating
MBAMBO,109302-0,Dispensary,Public,-9.35625,33.79319,Mbeya,Operating
LUKASI,109986-0,Dispensary,Public,-9.25366,33.85977,Mbeya,Operating
NTAPISI,121438-6,Dispensary,Public,-9.36295,33.84899,Mbeya,Operating
BWIBUKA,112211-8,Dispensary,Public,-9.31442,33.81845,Mbeya,Operating
MATAMBA,112207-6,Dispensary,Public,-9.09606,33.49953,Mbeya,Operating
MWAKALELI SDA,111700-1,Dispensary,Private,-9.19522,33.76506,Mbeya,Operating
ISANGE,112231-6,Health Center,Public,-9.186,33.82926,Mbeya,Operating
KIBOLE,102616-0,Dispensary,Public,-9.34961,33.88008,Mbeya,Operating
KANYELELE,102342-3,Dispensary,Public,-9.26227,33.7671,Mbeya,Operating
MPATA,112210-0,Health Center,Public,-9.26312,33.75123,Mbeya,Operating
LUFILYO,109318-6,Dispensary,Public,-9.28894,33.9008,Mbeya,Operating
KAMBASEGELA,102283-9,Dispensary,Public,-9.3952,33.8175,Mbeya,Operating
MBIGILI,109987-8,Dispensary,Private,-9.20853,33.82471,Mbeya,Operating
MANOW,104273-8,Dispensary,Private,-9.25841,33.78876,Mbeya,Operating
NDALA,106231-4,Dispensary,Public,-9.16621,33.758,Mbeya,Operating
JILEKA lab,122067-2,Health Laboratory,Private,-9.26779,33.81343,Mbeya,Operating
SELYA,121408-9,Dispensary,Public,-9.29891,33.87281,Mbeya,Operating
IJOKA,122301-5,Dispensary,Public,-9.17117,33.81404,Mbeya,Operating
ITETE,101977-7,Hospital,Private,-9.301621,33.847241,Mbeya,Operating
NTABA LUTHERAN,106592-9,Dispensary,Private,-9.42362,33.84477,Mbeya,Operating
LUSANJE,103752-2,Dispensary,Public,-9.19225,33.78351,Mbeya,Operating
MPATA,105354-5,Dispensary,Private,-9.26279,33.75032,Mbeya,Operating
BUSOKELO,113925-2,Hospital,Public,-9.2564,33.83118,Mbeya,Operating
MAGUNGA,115067-1,Dispensary,Public,-1.62147,33.92173,Mara,Operating
BARANGA,100325-0,Dispensary,Public,-1.68392,34.22873,Mara,Operating
STESO,122294-2,Dispensary,Private,-1.80292,34.10704,Mara,Operating
VISTENSA,122275-1,Dispensary,Private,-1.67473,34.31167,Mara,Operating
NYABANGE GVT,106629-9,Dispensary,Public,-1.54502,33.8663,Mara,Operating
BUTIAMA,100619-6,Hospital,Public,-1.7674,33.96015,Mara,Operating
MURIAZA,109383-0,Dispensary,Public,-1.7109,33.98596,Mara,Operating
NYASIRORI,106827-9,Dispensary,Public,-1.86136,33.95733,Mara,Operating
BUMANGI GOVT,100552-9,Dispensary,Public,-1.72267,34.00953,Mara,Operating
KIAGATA,102562-6,Health Center,Public,-1.66007,34.10725,Mara,Operating
NYAKISWA,115077-0,Dispensary,Public,-1.49684,33.47196,Mara,Operating
KIABAKARI MAGEREZA,102560-0,Dispensary,Public,-1.77482,33.8218,Mara,Operating
MAZAMI,121601-9,Dispensary,Public,-1.6247,33.9217,Mara,Operating
MJNUAT OSWALD MANG'OMBE CUMPUS,123965-6,Dispensary,Public,-1.67875,33.96235,Mara,Operating
KIABAKARI JWTZ,102559-2,Dispensary,Public,-1.77209,33.8481,Mara,Operating
BISUMWA,100375-5,Dispensary,Public,-1.60304,33.81003,Mara,Operating
RYAMISANGA,107208-1,Dispensary,Public,-1.58792,34.06708,Mara,Operating
FAMILY,121074-9,Dispensary,Private,-1.65006,34.10701,Mara,Operating
NYARUKORU,115071-3,Dispensary,Public,-1.53122,33.78022,Mara,Operating
YASI,111709-2,Dispensary,Private,-1.76412,33.96943,Mara,Operating
BUHEMBA,100473-8,Health Center,Public,-1.76362,34.0789,Mara,Operating
NYAMISISI,106736-2,Dispensary,Public,-1.75527,33.8677,Mara,Operating
MAGANA,103904-9,Dispensary,Public,-1.59476,33.975129,Mara,Operating
RYAMUGABO,107207-3,Dispensary,Public,-1.71627,33.79139,Mara,Operating
RWAMKOMA JKT,107195-0,Dispensary,Public,-1.83129,33.98587,Mara,Operating
NYAMIKOMA,115076-2,Dispensary,Public,-1.80526,33.85142,Mara,Operating
MATONGO,109612-2,Dispensary,Public,-1.71503,34.07301,Mara,Operating
KAMUGEGI,102297-9,Dispensary,Public,-1.73528,33.79443,Mara,Operating
WEGERO,108355-9,Dispensary,Public,-1.610912,34.194872,Mara,Operating
KIZARU,103242-4,Dispensary,Public,-1.67646,34.04125,Mara,Operating
KYAMAJOJE,109395-4,Dispensary,Public,-1.5936510830312614,33.77496623809253,Mara,Operating
BUTUGURI,122098-7,Health Center,Public,-1.39383,33.56152,Mara,Operating
NYABANGE KMT,106630-7,Dispensary,Private,-1.53997,33.86294,Mara,Operating
RWAMKOMA,107194-3,Dispensary,Public,-1.8078,34.0023,Mara,Operating
KYAWAZARWE,103427-1,Dispensary,Public,-1.767757,33.831531,Mara,Operating
RWASERETA,103163-2,Dispensary,Public,-1.71329,34.1781,Mara,Operating
BUSEGWE,100591-7,Dispensary,Public,-1.72088,33.95883,Mara,Operating
BUMANGI KMT,100553-7,Dispensary,Private,-1.73747,34.01057,Mara,Operating
ISABA,109419-2,Dispensary,Public,-1.66355,33.88346,Mara,Operating
BUSEGWE SDA,100592-5,Dispensary,Private,-1.70859,33.9532,Mara,Operating
KWIGUTU,115073-9,Dispensary,Public,-1.76197,33.95949,Mara,Operating
MASURURA,104430-4,Dispensary,Public,-1.61483,34.02225,Mara,Operating
NYAMIKA,106725-5,Dispensary,Public,-1.7276,33.85627,Mara,Operating
SIYA,122228-0,Health Laboratory,Private,-1.76789,33.96553,Mara,Operating
BUTUGURI,100624-6,Dispensary,Public,-1.67403,33.9528,Mara,Operating
BLESSED PIER GIORGIO FRASSAT,102561-8,Dispensary,Private,-1.76487,33.8598,Mara,Operating
BURUMA,100015-7,Dispensary,Public,-1.67623,33.83745,Mara,Operating
MWANZABURIGA,105951-8,Dispensary,Public,-1.79912,33.8997,Mara,Operating
MIRWA,104968-3,Dispensary,Public,-1.76963,34.14423,Mara,Operating
NYANKANGA,106781-8,Dispensary,Public,-1.58656,33.9024,Mara,Operating
MWIBAGI,106013-6,Dispensary,Public,-1.85632,33.8392,Mara,Operating
KAMUGENDI,102290-4,Dispensary,Public,-1.64677,34.07882,Mara,Operating
KIRUMI,109399-6,Health Center,Public,-1.55563,33.95427,Mara,Operating
HONDOGO,101387-9,Dispensary,Public,-6.175448,38.401402,Pwani,Operating
VISEZI,108269-2,Dispensary,Public,-6.74423,38.6316,Pwani,Operating
MBOGA,104621-8,Dispensary,Public,-6.52391,38.30871,Pwani,Operating
Bwawani Secondary,100653-5,Dispensary,Public,-6.64247,38.04989,Pwani,Operating
Matuli,104486-6,Dispensary,Public,-6.674581,38.223361,Pwani,Operating
UBENA PRISON,107991-2,Dispensary,Public,-6.63529,38.1669,Pwani,Operating
PINGO,121884-1,Dispensary,Public,-6.65569,38.43071,Pwani,Operating
KIFULETA,102683-0,Dispensary,Public,-6.09652,38.2047,Pwani,Operating
MBWAMBO,104826-3,Dispensary,Private,-6.64044,38.34885,Pwani,Operating
IMPERIAL,120475-9,Health Center,Private,-6.62974,38.28939,Pwani,Operating
upendo,121958-3,Health Laboratory,Private,-6.364878,38.574665,Pwani,Operating
CHAMAKWEZA,124058-9,Dispensary,Public,-6.67544,38.50432,Pwani,Operating
ANNE HILLARY,120721-6,Dispensary,Private,-6.331885,38.390144,Pwani,Operating
DIOZILE,114760-2,Dispensary,Public,-6.49359,38.27076,Pwani,Operating
LUGOBA SECONDARY,103645-8,Dispensary,Public,-6.45483,38.332,Pwani,Operating
ISACK,120647-3,Health Laboratory,Private,-6.628368,38.268635,Pwani,Operating
SARDON MEDICAL,122681-0,Health Laboratory,Private,-6.52279,38.31193,Pwani,Operating
CHAHUA,114800-6,Dispensary,Public,-6.67339,38.36733,Pwani,Operating
MSIGI,114792-5,Dispensary,Public,-6.51916,38.44204,Pwani,Operating
MNINDI,114759-4,Dispensary,Public,-6.71056,38.59549,Pwani,Operating
KIBAONI,114763-6,Dispensary,Public,-6.22576,38.39461,Pwani,Operating
TUKAMISASA,107894-8,Dispensary,Public,-6.52093,38.21369,Pwani,Operating
SALENI,110145-0,Dispensary,Public,-6.42481,38.34056,Pwani,Operating
MANDERA,104233-2,Dispensary,Private,-6.214632,38.407326,Pwani,Operating
PERA,114801-4,Dispensary,Public,-6.65566,38.43076,Pwani,Operating
D,124448-2,Dispensary,Private,-6.38125,38.20204,Pwani,Operating
KINZAGU,111897-5,Dispensary,Public,-6.38599,38.31192,Pwani,Operating
MBWEWE TYMA,110941-2,Dispensary,Private,-6.08586,38.24512,Pwani,Operating
TALAWANDA,107720-5,Dispensary,Public,-6.49258,38.46635,Pwani,Operating
UBENA ESTATE,107990-4,Dispensary,Public,-6.62276,38.1962,Pwani,Operating
RUPUNGWI,107167-9,Dispensary,Public,-6.162457,38.345367,Pwani,Operating
JANUARY MEDICAL LABORATORY  SERVICES,121136-6,Health Laboratory,Private,-6.634974,38.240211,Pwani,Operating
MASUGURU,104425-4,Dispensary,Public,-6.35717,38.4725,Pwani,Operating
RTS KIHANGAIKO,111350-5,Health Center,Public,-6.273644,38.388209,Pwani,Operating
MSATA,105443-6,Health Center,Public,-6.33492,38.3895,Pwani,Operating
MSOGA,105483-2,Hospital,Public,-6.562437,38.311898,Pwani,Operating
TRIPPLE R MBWAMBO,122005-2,Health Laboratory,Private,-6.635111,38.167599,Pwani,Operating
LIULI,120768-7,Dispensary,Private,NA,NA,Pwani,Operating
SOPHADON HEALTH CARE,123564-7,Health Laboratory,Private,-6.64608,38.35455,Pwani,Operating
MBAWALA,124091-0,Health Laboratory,Private,-6.64542,38.35262,Pwani,Operating
KWAMSANJA,103379-4,Dispensary,Public,-6.08298,38.0182,Pwani,Operating
BUYUNI,114757-8,Dispensary,Public,NA,NA,Pwani,Operating
MIONO,104955-0,Health Center,Public,-6.119612,38.411747,Pwani,Operating
UMOJA,123164-6,Dispensary,Private,-6.65468,38.35822,Pwani,Operating
KWANG'ANDU,103385-1,Dispensary,Public,-5.96211,38.2255,Pwani,Operating
MICO UWANJANI,114852-7,Dispensary,Private,-6.63943,38.34649,Pwani,Operating
MTEWELE,123874-0,Health Laboratory,Private,-6.45957,38.32997,Pwani,Operating
MAKOMBE,110149-2,Dispensary,Public,-6.416267,38.301867,Pwani,Operating
RUVU DARAJANI,110938-8,Dispensary,Public,-6.68767,38.68961,Pwani,Operating
MAGURUMATALI,114755-2,Dispensary,Public,-6.52215,38.50691,Pwani,Operating
MIHUGA,104892-5,Dispensary,Public,-6.183907,38.495204,Pwani,Operating
KWAMDUMA,103373-7,Dispensary,Public,-6.01895,38.0745,Pwani,Operating
MICO-MAZINDE,111353-9,Dispensary,Private,-6.64358,38.35054,Pwani,Operating
VISAKAZI,114762-8,Dispensary,Public,-6.63343,38.03728,Pwani,Operating
MATIPWILI,104471-8,Dispensary,Public,-6.231287,38.711881,Pwani,Operating
MIKO,122446-8,Health Laboratory,Private,-6.371881,38.587383,Pwani,Operating
TONGA,124231-2,Dispensary,Public,-6.47447,38.32861,Pwani,Operating
CHANGALIKWA,124057-1,Dispensary,Public,-6.67544,38.50432,Pwani,Operating
LUGOBA,103643-3,Health Center,Public,-6.46303,38.33051,Pwani,Operating
MAMA FATUMA,114074-8,Maternity and Nursing Home,Private,-6.37159,38.58943,Pwani,Operating
CHALINZE,113278-6,Health Laboratory,Private,-6.63807,38.35434,Pwani,Operating
HEKIMA,122004-5,Health Laboratory,Private,-6.08018,38.340775,Pwani,Operating
KIMANGE,102898-4,Dispensary,Public,-6.128501,38.306586,Pwani,Operating
PONGWEMSUNGURA,107027-5,Dispensary,Public,-6.333847,38.259817,Pwani,Operating
MINDUKENE,114785-9,Dispensary,Public,-6.46695,38.42121,Pwani,Operating
MANDAMAZINGARA,104224-1,Dispensary,Public,-6.04939,38.522318,Pwani,Operating
IBRA,122437-7,Health Laboratory,Private,-6.375816,38.586174,Pwani,Operating
CHALINZE,100706-1,Health Center,Public,-6.63666,38.35381,Pwani,Operating
CHALINZE RC,100707-9,Dispensary,Private,-6.64044,38.3667,Pwani,Operating
MDAULA,114793-3,Dispensary,Public,-6.63641,38.24378,Pwani,Operating
UBENA ZOMOZI,108502-6,Dispensary,Public,-6.63462,38.17323,Pwani,Operating
CHARLOTHI,107718-9,Dispensary,Private,-6.45887,38.32811,Pwani,Operating
GONGO,110153-4,Dispensary,Public,-6.16672,38.59842,Pwani,Operating
KWEIKONJE,103400-8,Dispensary,Public,-5.99394,38.36732,Pwani,Operating
KIBINDU,102601-2,Health Center,Public,-5.99322,37.92274,Pwani,Operating
MASIMBANI,104410-6,Dispensary,Public,-6.037561,38.415426,Pwani,Operating
MICO,113289-3,Health Laboratory,Private,-6.37293,38.58736,Pwani,Operating
KWARUHOMBO,103389-3,Health Center,Public,-6.08572,38.1342,Pwani,Operating
LUDOVIC,122436-9,Health Laboratory,Private,-6.077877,38.24358,Pwani,Operating
MWETEMO,114761-0,Dispensary,Public,-6.35235,38.49707,Pwani,Operating
HAROUB,114266-0,Health Laboratory,Private,-6.117967,38.409223,Pwani,Operating
GADO,114419-5,Health Laboratory,Private,-6.636776,38.236706,Pwani,Operating
MICO MDAULA,123235-4,Dispensary,Private,-6.63668,38.23472,Pwani,Operating
MILO,108452-4,Dispensary,Public,-6.576416,38.745552000000004,Pwani,Operating
MAZIZI,111866-0,Dispensary,Public,-6.41519,38.341038,Pwani,Operating
SAN KIMASA,122601-8,Dispensary,Private,-6.63801,38.13171,Pwani,Operating
MELINE TRUST,123562-1,Health Laboratory,Private,-6.64374,38.35329,Pwani,Operating
SAADANI,107223-0,Dispensary,Public,-6.04268,38.77731,Pwani,Operating
MICO,120648-1,Health Laboratory,Private,NA,NA,Pwani,Operating
PONGWEKIONA,107026-7,Dispensary,Public,-6.18032,38.242556,Pwani,Operating
MSOLWA,111351-3,Dispensary,Public,-6.62274,38.26871,Pwani,Operating
MKOKO,105085-5,Dispensary,Public,-6.25557,38.49112,Pwani,Operating
RUVU MEDICAL LABORATORY SERVICES,120645-7,Health Laboratory,Private,NA,NA,Pwani,Operating
KIDOGOZERO,102665-7,Dispensary,Public,-6.65231,38.7058,Pwani,Operating
BAGO,124232-0,Dispensary,Public,-6.38049,38.57155,Pwani,Operating
KIWANGWA,103224-2,Dispensary,Public,-6.36998,38.5812,Pwani,Operating
MBWEWE,104686-1,Dispensary,Public,-6.07665,38.2464,Pwani,Operating
MKANGE,105053-3,Dispensary,Public,-6.07292,38.561945,Pwani,Operating
KIHANGAIKO,114783-4,Dispensary,Public,-6.31781,38.38384,Pwani,Operating
LUGOBA MISSION,103644-1,Dispensary,Private,-6.45537,38.3315,Pwani,Operating
MSAMWA DISP,110940-4,Dispensary,Private,-6.33344,38.38519,Pwani,Operating
Msinune,105476-6,Dispensary,Public,-6.39993,38.5569,Pwani,Operating
KILEMERA,114758-6,Dispensary,Public,-6.18162,38.43045,Pwani,Operating
VIGWAZA,108252-8,Dispensary,Public,-6.67562,38.6177,Pwani,Operating
MAHAMHA,109609-8,Dispensary,Public,-6.04852,36.14582,Dodoma,Operating
MZULA,120838-8,Dispensary,Public,-6.31259,35.87229,Dodoma,Operating
Imani,121919-5,Health Laboratory,Private,NA,NA,Dodoma,Operating
MSAMALO,123215-6,Dispensary,Public,-6.27987,36.11951,Dodoma,Operating
Chiboli,100778-0,Dispensary,Public,-6.856554,35.819902,Dodoma,Operating
ST. JOSEPH,123007-7,Health Laboratory,Private,-6.50151,35.83679,Dodoma,Operating
WILUNZE,108371-6,Dispensary,Public,-6.127665,36.228355,Dodoma,Operating
Handali,101311-9,Health Center,Public,-6.340347,36.000235000000004,Dodoma,Operating
CHAMWINO,100726-9,Health Center,Public,-6.09856,36.03796,Dodoma,Operating
SASAJILA,107305-5,Dispensary,Public,-6.691306,35.885508,Dodoma,Operating
Manzase,104287-8,Dispensary,Public,-6.606497,35.931989,Dodoma,Operating
Membe,104726-5,Dispensary,Public,-5.892263,36.172407,Dodoma,Operating
ILOLO,123319-6,Dispensary,Public,-6.31259,35.87229,Dodoma,Operating
Chinugulu,100829-1,Dispensary,Public,-6.90156,35.394375,Dodoma,Operating
Ikombo,109666-8,Dispensary,Public,-5.722259,36.084373,Dodoma,Operating
USEMI,121523-5,Health Laboratory,Private,NA,NA,Dodoma,Operating
Loje,103571-6,Dispensary,Public,-6.866932,36.011202,Dodoma,Operating
Izava,102049-4,Dispensary,Public,-5.561118,36.260151,Dodoma,Operating
Chiwondo,100866-3,Dispensary,Public,-5.725719,36.229303,Dodoma,Operating
MBISI,121529-2,Health Laboratory,Private,NA,NA,Dodoma,Operating
KAWAWA,102505-5,Dispensary,Public,-5.971917,36.05055,Dodoma,Operating
SOLOWU,110455-3,Dispensary,Public,-5.651149,35.935664,Dodoma,Operating
Ikombolinga,101663-3,Dispensary,Public,-6.486684,35.958748,Dodoma,Operating
CHINANGALI II,123549-8,Health Laboratory,Private,-6.14139,36.07081,Dodoma,Operating
Chalinze,100705-3,Dispensary,Public,-6.15997,36.229958,Dodoma,Operating
Buigiri,100487-8,Dispensary,Public,-6.140224,36.022642,Dodoma,Operating
Champumba,109624-7,Dispensary,Public,-6.96171,35.873945,Dodoma,Operating
MANCHALI B,113958-3,Dispensary,Public,-6.14702,36.18593,Dodoma,Operating
Nghambaku,106511-9,Dispensary,Public,-6.85508,NA,Dodoma,Operating
MVUMI MISSION,105775-1,Hospital,Private,-6.39181,35.89892,Dodoma,Operating
MM JKT,113927-8,Dispensary,Public,-6.14494,36.02366,Dodoma,Operating
Ikowa,101673-2,Dispensary,Public,-6.227441,36.149142,Dodoma,Operating
NGHAHELEZI,106376-7,Dispensary,Public,-6.3836,36.07281,Dodoma,Operating
Manda,109833-4,Dispensary,Public,-6.775079,35.298047,Dodoma,Operating
WILIKO,108370-8,Dispensary,Public,-6.665385,35.764371,Dodoma,Operating
Manyemba,104282-9,Dispensary,Public,-5.696419,36.17278,Dodoma,Operating
Faraja Medical,122079-7,Health Laboratory,Private,NA,NA,Dodoma,Operating
Makoja,109605-6,Dispensary,Public,-6.20709,36.14169,Dodoma,Operating
Chanhumba,100737-6,Dispensary,Public,-6.337904,36.046607,Dodoma,Operating
ITISO,121782-7,Health Center,Public,-5.62451,36.01972,Dodoma,Operating
Gwandi,101279-8,Dispensary,Public,-5.448179,36.039127,Dodoma,Operating
Uhuru,114711-5,Hospital,Public,-6.13742,36.00249,Dodoma,Operating
MNASE,105238-0,Dispensary,Public,-6.259646,36.061245,Dodoma,Operating
MANDA,120914-7,Health Center,Public,-6.77507,35.29804,Dodoma,Operating
Mgunga,104793-5,Dispensary,Public,-6.27987,36.119505,Dodoma,Operating
NDEBWE,106242-1,Dispensary,Public,-6.36616,35.975513,Dodoma,Operating
Chinangali II,100822-6,Dispensary,Public,-6.144796,36.085071,Dodoma,Operating
J4,124328-6,Health Laboratory,Private,-5.48535,35.84342,Dodoma,Operating
Iringa Mvumi,101856-3,Dispensary,Public,-6.482167,35.925108,Dodoma,Operating
NAGULO MWITIKIRA,106069-8,Dispensary,Public,-6.600192,35.622014,Dodoma,Operating
NDOGOWE,106257-9,Dispensary,Public,-6.921388,35.642813,Dodoma,Operating
Haneti,101314-3,Health Center,Public,-5.48546,35.84359,Dodoma,Operating
NKWENDA,106557-2,Dispensary,Public,-6.478725,35.747993,Dodoma,Operating
Huzi,101425-7,Dispensary,Public,-6.652928,35.488999,Dodoma,Operating
ITISO RC,101993-4,Dispensary,Private,-5.635302,36.03234,Dodoma,Operating
MVUMI MAKULU,105774-4,Dispensary,Public,-6.347827,35.846517,Dodoma,Operating
Itiso Government,101992-6,Dispensary,Public,-5.635217,36.022249,Dodoma,Operating
Fufu,101155-0,Dispensary,Public,-6.691409,35.977163,Dodoma,Operating
NHINHI,106464-1,Dispensary,Public,-6.58447,35.745513,Dodoma,Operating
ZAJILWA,108403-7,Dispensary,Public,-5.484135,36.099494,Dodoma,Operating
Miganga,104873-5,Dispensary,Public,-6.426016,36.042843,Dodoma,Operating
Chifukulo,100786-3,Dispensary,Public,-6.571506,35.518788,Dodoma,Operating
MPWAYUNGU,105400-6,Health Center,Public,-6.70994,35.58721,Dodoma,Operating
SEGALA,107345-1,Dispensary,Public,-5.57757,36.129083,Dodoma,Operating
Chilonwa,100814-3,Dispensary,Public,-6.039112,36.145826,Dodoma,Operating
JENIPHER,124320-3,Health Laboratory,Private,-6.59881,35.81624,Dodoma,Operating
CHINOJE,100827-5,Dispensary,Public,-6.42957,36.11771,Dodoma,Operating
Mloda,105210-9,Dispensary,Public,-6.56402,35.86791,Dodoma,Operating
Mlowa Bwawani Government,105217-4,Dispensary,Public,-6.598915,35.816841,Dodoma,Operating
Mlowa barabarani,108582-8,Health Center,Public,-6.50046,35.839887,Dodoma,Operating
ILANGALI,101716-9,Dispensary,Public,-6.87245,35.087,Dodoma,Operating
Chenene,100770-7,Dispensary,Public,-5.569408,35.845557,Dodoma,Operating
IGUNGULI,114933-5,Dispensary,Public,-6.86693,36.01121,Dodoma,Operating
Mlimwa,105208-3,Dispensary,Public,-5.956445,36.234504,Dodoma,Operating
Chamwino,113853-6,Hospital,Public,-6.52546,35.83114,Dodoma,Operating
Humekwa,101403-4,Dispensary,Public,-5.53783,35.723189,Dodoma,Operating
Majeleko,104045-0,Dispensary,Public,-6.08012,36.180559,Dodoma,Operating
MLOWA BWAWANI,108628-9,Dispensary,Private,-6.598915,35.816841,Dodoma,Operating
ILEWELO,109576-9,Dispensary,Public,-6.771502,35.845672,Dodoma,Operating
MSANGA,105430-3,Dispensary,Public,-6.041223,36.029084,Dodoma,Operating
Mlebe,105197-8,Dispensary,Public,-6.225363,36.068599,Dodoma,Operating
Idifu,101479-4,Dispensary,Public,-6.436293,35.982823,Dodoma,Operating
MATEMENJI VISION CENTRE,112864-4,Clinic,Private,NA,NA,Dodoma,Operating
JEHOVA SHAMMAH,121528-4,Health Laboratory,Private,NA,NA,Dodoma,Operating
Manchali,104216-7,Dispensary,Public,-6.13941,36.1676,Dodoma,Operating
Makang'wa,104083-1,Dispensary,Public,-6.423481,35.867804,Dodoma,Operating
CONSOLATHA,112465-0,Dispensary,Private,-6.78046,35.29842,Dodoma,Operating
MUUNGANO,105729-8,Dispensary,Public,-6.312592,35.87229,Dodoma,Operating
DABALO,100941-4,Health Center,Public,-5.80465,36.11832,Dodoma,Operating
Central Health,122077-1,Health Laboratory,Private,NA,NA,Dodoma,Operating
SULI,107659-5,Dispensary,Public,-6.74684,35.92917,Dodoma,Operating
MSAMALO,123440-0,Health Center,Public,-6.27987,36.11905,Dodoma,Operating
Igandu,101528-8,Dispensary,Public,-6.360067,36.137459,Dodoma,Operating
Chinangali I,100821-8,Dispensary,Public,-6.102536,36.176224,Dodoma,Operating
KIMEJI,122516-8,Dispensary,Public,-5.56111,36.26015,Dodoma,Operating
KWAHEMU,114932-7,Dispensary,Public,-5.47724,35.92456,Dodoma,Operating
CHATO,100751-7,Hospital,Public,-2.64382,31.77254,Geita,Operating
MKUNGO,105138-2,Dispensary,Public,-2.84516,31.73733,Geita,Operating
CHATO COHEST,121291-9,Clinic,Private,-2.630607,31.781046,Geita,Operating
KAJORO,122179-5,Health Laboratory,Private,-3.03274,31.75813,Geita,Operating
BAHEBE HEALTH LABORATORY,122023-5,Health Laboratory,Private,-2.53297,31.69503,Geita,Operating
BWANGA,100650-1,Health Center,Public,-3.0347,31.76082,Geita,Operating
NYAMIREMBE,106733-9,Dispensary,Public,-2.52618,31.7167,Geita,Operating
CHATO PRISON,122888-1,Dispensary,Public,-2.61989,31.72724,Geita,Operating
MUUNGANO,109903-5,Health Center,Private,-2.377312,31.736332,Geita,Operating
MAKURUGUSI,104145-8,Dispensary,Public,-2.91882,31.74032,Geita,Operating
KASENGA,102417-3,Dispensary,Public,-2.639851,31.448732,Geita,Operating
KMT BUZIKU,111135-0,Dispensary,Private,-3.03374,31.75133,Geita,Operating
BUSAKA,100580-0,Dispensary,Public,-2.96956,31.73053,Geita,Operating
URAFIKI PRINMAT,111136-8,Dispensary,Private,-2.37388,31.72511,Geita,Operating
BUZIKU,100638-6,Dispensary,Public,-2.9805,31.66348,Geita,Operating
MLIMANI,122372-6,Dispensary,Public,-2.63299,31.74501,Geita,Operating
KATETE,102475-1,Dispensary,Public,-2.375205,31.685286,Geita,Operating
KAKENENO,122371-8,Dispensary,Public,-2.88576,31.62757,Geita,Operating
HURUMA,111370-3,Dispensary,Private,-3.00299,31.92007,Geita,Operating
SHIMBALA,114378-3,Health Laboratory,Private,-2.637704,31.76431,Geita,Operating
MUSASA,120369-4,Dispensary,Public,-3.0315654,31.7560552,Geita,Operating
SONVID,122332-0,Clinic,Private,-3.00526,31.92187,Geita,Operating
KIGONGO,102721-8,Dispensary,Public,-2.45747,31.7902,Geita,Operating
KINSABE,111371-1,Dispensary,Public,-3.178117,31.824473,Geita,Operating
RAHMA,113962-5,Dispensary,Private,-2.63769,31.755,Geita,Operating
DESTINO HEALTH,123307-1,Health Laboratory,Private,-2.63869,31.77149,Geita,Operating
NYARUTEMBO,114638-0,Health Center,Public,-2.931388,31.597884,Geita,Operating
SHISHI,112898-2,Health Laboratory,Private,-2.37379,NA,Geita,Operating
AFYA NJEMA,124103-3,Dispensary,Private,-3.03038,31.76134,Geita,Operating
NYABILEZI,106632-3,Health Center,Public,-2.73794,31.72403,Geita,Operating
BUTARAMA,109819-3,Health Center,Public,-2.47813,31.74878,Geita,Operating
MUGANZA,103272-1,Dispensary,Private,-2.37774,31.73426,Geita,Operating
MNEKEZI,120839-6,Dispensary,Public,-3.3931042,31.635262,Geita,Operating
Y-LABORATORY,112902-2,Health Laboratory,Private,-2.6385067,31.766903,Geita,Operating
MARYELIZA,124325-2,Health Laboratory,Private,-3.01787,31.90367,Geita,Operating
BUZIRAYOMBO,100640-2,Dispensary,Public,-2.78106,31.7802,Geita,Operating
ILEMELA,101734-2,Health Center,Public,-2.62624,31.65726,Geita,Operating
CHATO,120343-9,Hospital,Public,-2.6444392,31.772888,Geita,Operating
NYABUGERA,106636-4,Dispensary,Private,-2.35691,31.74156,Geita,Operating
ELSHADAI HEALTH CARE,122636-4,Health Laboratory,Private,-3.004267,31.9250889,Geita,Operating
KATENDE,102470-2,Health Center,Public,-2.70833,31.67925,Geita,Operating
MABUGA,112854-5,Health Laboratory,Private,-2.97953,31.66202,Geita,Operating
ILYAMCHELE,109718-7,Dispensary,Public,-2.74155,31.61503,Geita,Operating
BWINA,113917-9,Health Center,Public,-2.6232510000000002,31.812276,Geita,Operating
HOPE,123675-1,Health Laboratory,Private,-2.37119,31.72528,Geita,Operating
MASANJA,112848-7,Health Laboratory,Private,-2.78187,31.77738,Geita,Operating
KIBUMBA,102626-9,Dispensary,Public,-2.87143,31.8498,Geita,Operating
