facility_name,facility_code,facility_type,facility_ownership,latitude,longitude,admin1,status
Namatindi Rural Health Centre,1835,Health Centre,MOH,-14.44888262,22.76034052,Western,Functional
Kaluwe Rural Health Centre,1815,Health Centre,MOH,-14.501655,22.134218,Western,Functional
Mankhaka  Health Post,2564,Health Post,MOH,-12.28888333,33.17441667,Eastern,Functional
Chisu Health Post,4084,Health Post,MOH,-17.264517,24.383903,Western,Functional
Chienge District Hospital,4157,1st Level Hospital,MOH,-8.65494,29.16818,Luapula,Functional
Nanzhila Rural Health Centre,1337,Health Centre,MOH,-16.095959,26.08017,Southern,Functional
Lealui Rural Health Centre,3467,Health Centre,MOH,-15.23853,23.024347,Western,Functional
Zubeda Clinic,3662,Diagnostic centre,Private,-15.7726,28.18208,Lusaka,Functional
Katondo Urban Health Centre,1830,Health Centre,MOH,-14.45656559,28.471535,Central,Functional
Mutanda Rural Health Centre,2503,Health Centre,MOH,-12.422681,26.220345,North-Western,Functional
Hamatuba Health Post,3283,Health Post,MOH,-16.77294134,28.06408955,Southern,Functional
Lumbe Nanyenzu Health Post,3237,Health Post,MOH,-16.105277,23.298611,Western,Functional
Kawaza Rural Health Post,1901,Health Post,MOH,-14.256272,32.164201,Eastern,Functional
Katuta Rural Health Centre,2817,Health Centre,MOH,-10.7849,28.5906,Luapula,Functional
Choma Health Post,3240,Health Post,MOH,-10.3632,33.40582,Muchinga,Functional
Mpidi Health Centre,4020,Health Centre,MOH,-14.159019734304,23.316753999023,North-Western,Functional
Chingola Surgery Limited,4126,General clinic,Private,-12.32313,25.520052,Copperbelt,Functional
Makia Health Post,1772,Health Post,MOH,-14.700629,22.368515,Western,Functional
Lutwi Health Post,1805,Health Post,MOH,-14.54194624,22.27855835,Western,Functional
Multi Care Hospital,4225,1st Level Hospital,Private,-15.4436461,28.315525,Lusaka,Functional
First Fruits Health Centre,3668,General clinic,Private,-15.4556412,28.2919459,Lusaka,Functional
Village of Hope Health Center,3658,General clinic,Private,-15.3149,28.68143,Lusaka,Functional
Shilenda Rural Health Centre,2509,Health Centre,MOH,-12.392532,25.767549,North-Western,Functional
Limulunga Stage II Rural Health Centre,1664,Health Centre,MOH,-15.13463,23.14575,Western,Functional
Kamitonte Rural Health Centre,2629,Health Centre,ZNS,-12.002304,26.415867,North-Western,Functional
Situlu Health Post,1097,Health Post,MOH,-17.276812,25.017909,Western,Functional
Lubilo Health Post,3981,Health Post,MOH,-13.184307,24.907225,North-Western,Functional
Bwanunkha Rural Health Centre,2004,Health Centre,MOH,-13.934065,32.576443,Eastern,Functional
Shimulala Health Post,2566,Health Post,MOH,-12.494461896503,27.810874970703,Copperbelt,Functional
Teal Dermatology,4196,Others,Private,NA,NA,Lusaka,Functional
Tinna Medical Centre,2403,Health Centre,Private,-12.79542,28.20821,Copperbelt,Functional
Mushika Health Post,2904,Health Post,MOH,-9.960946,30.747583,Northern,Functional
Konkola Health Post,2557,Health Post,MOH,-12.29901243,27.75720412,Copperbelt,Functional
Kawama Rural Health Centre,2893,Health Centre,MOH,-10.084,28.63336,Luapula,Functional
Lubwa Rural Health Centre,3481,Health Centre,Faith Based,-10.591334,32.006834,Muchinga,Functional
Misaka Health Post,2280,Health Post,MOH,-13.029763,28.453016,Copperbelt,Functional
Fikombo Health Post,3092,Health Post,MOH,-11.911045667437,28.645105057526,Luapula,Functional
Vision Care Centre-Makeni Shopping Mall,4352,Eye clinic,Private,NA,NA,Lusaka,Functional
Chembe Rural Health Centre,3605,Health Centre,MOH,-11.967709543184,28.745475279713,Luapula,Functional
Hamapande Rural Health Centre,1281,Health Centre,MOH,-16.30163888,27.12485061,Southern,Functional
Mayanga Health Post,3530,Health Post,MOH,-8.786396,31.390706,Northern,Functional
City Dental Clinic,4226,General clinic,Private,-15.4067,28.29598,Lusaka,Functional
WHB Medical Centre,4317,General clinic,Private,-15.392212,28.308881,Lusaka,Functional
Nvumabaranda Chisasa Health Service,4704,Health Post,Private,NA,NA,North-Western,Functional
Kafulamase Health Post,1817,Health Post,MOH,-14.484307,28.512841,Central,Functional
Lui River Rural Health Centre,1447,Health Centre,MOH,-15.7598,23.5246,Western,Functional
Kamisamba Health Post,3578,Health Post,MOH,-13.989471,23.617306,North-Western,Functional
Miteta Health Post,3148,Health Post,MOH,-12.389875,27.763988,Copperbelt,Functional
Silowana Rural Health Centre,1311,Health Centre,MOH,-16.195841,23.159877,Western,Functional
Twingi Health Post,3865,Health Post,MOH,-11.7484399,29.5073267,Luapula,Functional
Kaanzwa Rural Health centre,1469,Health Centre,MOH,-15.656098,26.107979,Southern,Functional
Kampinda Rural Health Centre,3492,Health Centre,MOH,-8.766667,29.766667,Northern,Functional
Mwenyi Health Post,1720,Health Post,MOH,-14.944999,22.569107,Western,Functional
Chondwe Health Post,2218,Health Post,MOH,-13.3096,28.760481,Copperbelt,Functional
Ndoba Rural Health Center,2724,Health Centre,MOH,-11.2667,29.5236,Luapula,Functional
Kampamba Health Post,2896,Health Post,MOH,-10.022273,31.925295,Northern,Functional
Mukangala Health Centre,3635,Health Centre,MOH,-11.4287,24.3314,North-Western,Functional
Mwaiseni Urban Health Center,3815,Health Centre,MOH,-12.82212,28.24862,Copperbelt,Functional
Rufunsa Rural Health Center,3917,Health Centre,MOH,-15.3459,29.23904,Lusaka,Functional
Vision Care Opticians Great North Mall,4357,Eye clinic,Private,NA,NA,Lusaka,Functional
Pollen Urban Health Centre,1840,Health Centre,MOH,-14.4412,28.4628,Central,Functional
Puta Rural Health Centre,3055,Health Centre,MOH,-8.68798,29.14746,Luapula,Functional
Muchinshi Rural Health Centre,2561,Health Centre,MOH,-12.493740468216,27.542937245117,Copperbelt,Functional
Mfulabunga Rural Health Centre,2116,Health Centre,MOH,-13.495047,28.032383,Copperbelt,Functional
Maina Soko Hospital,3915,3rd Level Hospital,ZDF,NA,NA,Lusaka,Functional
Kimikanga Rural Health Center,3962,Health Centre,MOH,-12.690429,26.039575,North-Western,Functional
Chawama Health Post,2273,Health Post,MOH,-13.048616,28.415878,Copperbelt,Functional
Mwanawina Rural Health Centre,1737,Health Centre,MOH,-14.863283,23.176759,Western,Functional
Nyambi 2 Rural Health Centre,4065,Health Centre,MOH,-15.54,24.7282,Western,Functional
Luoke West Rural Health Centre,1752,Health Centre,MOH,-14.800023,22.453162,Western,Functional
Nyaala Health Post,1810,Health Post,MOH,-14.526549,23.085825,Western,Functional
Kamwanya Health Post,3389,Health Post,MOH,-11.822758,31.466343,Muchinga,Functional
Kabeleka Health Post,1616,Health Post,MOH,-15.2329,28.3318,Lusaka,Functional
Kasomalwela Rural Health Centre,3604,Health Centre,MOH,-11.933406361839,28.917021281242,Luapula,Functional
Chinambi Rural Health Centre,1823,Health Centre,MOH,-14.4688603,30.6703981,Eastern,Functional
Sitoti Rural Health Centre,1277,Health Centre,MOH,-16.315384,23.269387,Western,Functional
Mnoro Rural Health Centre,2103,Health Centre,MOH,-13.52566768,32.64685486,Eastern,Functional
Movu Health Post,3929,Health Post,MOH,-9.28448,32.55526,Muchinga,Functional
Chilwa Health Post,4188,Health Post,MOH,-13.292242,27.793354,Copperbelt,Functional
KCM Nkana Clinic,3099,Health Centre,Private,-12.830468,28.210147,Copperbelt,Functional
Sichilima Health Post,3614,Health Post,MOH,-14.075221,31.431835,Eastern,Functional
Human Service Trust Hospice,1596,Health Post,Faith Based,-15.271542,28.111248,Lusaka,Functional
Mabua Health Post,1515,Health Post,MOH,-15.424428,22.319421,Western,Functional
Ipafu Rural Health Centre,2551,Health Centre,Faith Based,-12.310501,27.410431,Copperbelt,Functional
Kalasakando Health Post,3598,Health Post,MOH,-11.81806,29.594564,Luapula,Functional
Siawaza Health Post,1032,Health Post,MOH,-17.724263,26.939946,Southern,Functional
Mumbezhi Zambia National Service Rural Health Centre,3968,Health Centre,MOH,-13.96572,23.705749,North-Western,Functional
Marie Stopes Family Health Centre,4281,General clinic,Private,-15.412045,28.352424,Lusaka,Functional
Lumwana East Rural Health Centre,2543,Health Centre,MOH,-12.322024,25.656354,North-Western,Functional
Section 23 Urban Health Centre,2249,Health Centre,Private,-13.104369,28.325151,Copperbelt,Functional
Mainza Health Post,1365,Health Post,MOH,-16.002554,27.607172,Southern,Functional
Katunda Rural Health Centre,4053,Health Centre,MOH,-14.8326,24.1803,Western,Functional
Simaa Health Post,1741,Health Post,MOH,-14.853566,23.621625,Western,Functional
Ndola Girls Health Post,2308,Health Post,MOH,-12.973875,28.517707,Copperbelt,Functional
Kapata Rural Health Center,2662,Health Centre,MOH,-11.6757,29.7068,Luapula,Functional
Nakonde Hospital Affiliated Health Center,3425,Health Centre,MOH,-9.35125,32.704282,Muchinga,Functional
Kalela health post,3464,Health Post,MOH,-9.905446,32.261227,Muchinga,Functional
Andeson Clinic,3905,General clinic,Private,NA,NA,Lusaka,Functional
Sampa Health Post,2925,Health Post,MOH,-9.797837,31.726568,Northern,Functional
Chinan Urban Health Centre,3100,Health Centre,Private,-12.968815,28.64669,Copperbelt,Functional
Mbenjele Health Post,2145,Health Post,MOH,-13.36671009,32.48235969,Eastern,Functional
N'uma Health Post,1719,Health Post,MOH,-14.95324712,22.81407513,Western,Functional
Ndakala Health Post,3596,Health Post,MOH,-9.674444,31.875321,Northern,Functional
Kalabo District Hospital,1704,1st Level Hospital,MOH,-14.99331544,22.68077004,Western,Functional
Masala Main Urban Health Centre,2302,Health Centre,MOH,-12.990383,28.639,Copperbelt,Functional
Lyabangu Health Post,1194,Health Post,MOH,-16.639403,23.247001,Western,Functional
Wellspring Specialty Clinic,4356,General clinic,Private,-15.388164,28.318405,Lusaka,Permanent closure
Tuyu Rural Health Center,3574,Health Centre,MOH,-14.329855,29.228526,Central,Functional
Kamirenda Urban Health Centre,2241,Health Centre,MOH,-13.12319,28.430482,Copperbelt,Functional
Clear Vision Clinic,4227,General clinic,Private,-15.4393,28.36059,Lusaka,Functional
Makeni Villa Health Post,3895,Health Post,MOH,-15.4441389,28.2267026,Lusaka,Functional
Shimabila Rural Health Centre,4699,Health Centre,MOH,NA,NA,North-Western,Functional
Nyengo Rural Health Centre,1735,Health Centre,MOH,-14.873811,22.193084,Western,Functional
Maveve Health Post,3559,Health Post,MOH,-13.989471,23.617306,North-Western,Functional
Samfya District Hospital,2696,1st Level Hospital,MOH,-11.3688,29.5537,Luapula,Functional
Salamo Heath Post,3359,Health Post,MOH,-11.59557,30.223647,Muchinga,Functional
Chaisa Urban Health Centre,2237,Health Centre,MOH,-13.127906,28.363955,Copperbelt,Functional
Mphuka Rural Health Centre,1601,Health Centre,MOH,-15.264482,30.215528,Lusaka,Functional
Mwika Rural Health Centre,3394,Health Centre,MOH,-10.524981,31.719197,Muchinga,Functional
Rural Resettlement Health Post,1136,Health Post,MOH,-16.99009971,26.27798385,Southern,Functional
Nansenga Health Centre,3581,Health Centre,MOH,-15.10242757581,27.13793625,Southern,Functional
Mtizwa Rural Health Post,4373,Health Post,MOH,-13.770822,32.505402,Eastern,Functional
Chimoto Health Post,4185,Health Post,MOH,-12.915085,27.934615,Copperbelt,Functional
Mpelembe Secondary School Health post,2385,Health Post,Private,-12.8198,28.25225,Copperbelt,Functional
Namundale Health Post,1627,Health Post,MOH,-15.21169303,22.75079838,Western,Functional
Kalulushi General Hospital,2377,2nd Level Hospital,MOH,-12.833538,28.100348,Copperbelt,Functional
Katoya Health Post,1784,Health Post,MOH,-14.639665,25.018912,Western,Functional
Lunyati Rural Health Centre,1903,Health Centre,MOH,-14.246854,24.903537,Western,Functional
Kanyelele Rural Health Centre,2818,Health Centre,MOH,-10.7675,33.4677,Eastern,Functional
Mukukutu Health Post,1491,Health Post,MOH,-15.5004,23.21983,Western,Functional
Chipete Rural Health Centre,3602,Health Centre,MOH,-11.84541,28.5007,Luapula,Functional
Natuseko Urban Health Centre,1856,Health Centre,MOH,-14.4049,28.4602,Central,Functional
Zatulate Health Centre,4318,Health Centre,Private,-15.3896056,28.334156,Lusaka,Functional
Mipulya Health Post,3928,Health Post,MOH,-9.185051,32.413733,Muchinga,Functional
Zhanga Ying Surgery,4319,General clinic,Private,NA,NA,Lusaka,Functional
Chilenga Health Post,1941,Health Post,MOH,-14.117011,32.368438,Eastern,Functional
Masala New Urban Health Centre,2290,Health Centre,MOH,-13.002217,28.6377,Copperbelt,Functional
Mukwikile Health Post,3398,Health Post,MOH,-11.348453,31.772355,Muchinga,Functional
Nangweshi Rural Health Centre,4078,Health Centre,MOH,-16.3841,23.3173,Western,Functional
Makasa Rural Health Centre,2944,Health Centre,MOH,-9.674432,31.875198,Northern,Functional
Mukobeko Township Urban Health Centre,1850,Health Centre,MOH,-14.4212,28.4095,Central,Functional
Mibenge Rural Health Center,2712,Health Centre,MOH,-11.3015,29.4032,Luapula,Functional
Chisanina Health Post,4184,Health Post,MOH,-13.073116,27.755142,Copperbelt,Functional
Chilombwa Health Post,3593,Health Post,MOH,-10.447249,31.526644,Northern,Functional
Lubwe Hospital Affiliated Health Centre,2774,Health Centre,MOH,-11.118781,29.646143,Luapula,Functional
Kaloko Urban Health Centre,2278,Health Centre,MOH,-13.036583,28.634983,Copperbelt,Functional
Kalembwe Rural Health Centre,3051,Health Centre,MOH,-8.78253,29.11778,Luapula,Functional
Lulan'unyi Health Post,1657,Health Post,MOH,-15.152138,22.302706,Western,Functional
Katonte Health Post,3149,Health Post,MOH,-13.473684,28.979948,Copperbelt,Functional
Chinsali District Hospital,2840,1st Level Hospital,MOH,-10.560953,32.071436,Muchinga,Functional
Mimpongo Health Post,1768,Health Post,MOH,-14.714879,25.102358,Western,Functional
Thomson District Hospital,2226,1st Level Hospital,MOH,-13.139583,28.430339,Copperbelt,Functional
Lombe Lombe Health Post,1793,Health Post,MOH,-14.59685,25.416719,Western,Functional
Konkola Rural Health Centre,1278,Health Centre,MOH,-16.308933,28.020512,Southern,Functional
Kafinda Health Post,3122,Health Post,MOH,-12.60823,30.392827,Central,Functional
Prime Dental and Aesthetics Clinic,4359,General clinic,Private,-15.5156339,28.2704524,Lusaka,Functional
Mum's Care Hospital - Woodlands,4425,1st Level Hospital,Private,-15.443912,28.3455577,Lusaka,Functional
Milulu Health Post,4163,Health Post,MOH,-12.15,29.4486,Luapula,Functional
Mandombe Rural Health Centre,1560,Health Centre,MOH,-15.345801,30.222895,Lusaka,Functional
Chikuni Mission Hospital,1242,1st Level Hospital,Faith Based,-16.42944092,27.54549047,Southern,Functional
Diambombola Rural Health Centre,2260,Health Centre,MOH,-13.07722,24.09764,North-Western,Functional
Chingoyo Health Post,3933,Health Post,MOH,-8.496858,30.030606,Northern,Functional
Chavuma Urban Health Centre,2348,Health Centre,Police Service,-12.883983,28.316967000000002,Copperbelt,Functional
Lambwe Chikwama Health Post,3070,Health Post,MOH,-8.428,29.37938,Luapula,Functional
Kapirimphika Health Post,1893,Health Post,MOH,-14.276922,32.415922,Eastern,Functional
Mwase Lundazi   Rural Health Centre,2505,Health Centre,MOH,-12.41912,33.21541,Eastern,Functional
Mbale Health Post,4057,Health Post,MOH,-14.7202,24.3604,Western,Functional
Lutembwe Health Post,4070,Health Post,MOH,-13.976463,22.631351,Western,Functional
Chozi Rural Health Centre,3411,Health Centre,MOH,-9.328949,32.315999,Muchinga,Functional
Namando Health Post,4062,Health Post,MOH,-15.2018,24.6382,Western,Functional
Nyachikayi Health Post,4044,Health Post,MOH,-14.401235716673,27.2697721875,North-Western,Functional
Liundu Health Post,1722,Health Post,MOH,-14.941342,22.173109,Western,Functional
Lishuwa Rural Health Centre,1861,Health Centre,MOH,-14.390859,23.502512,Western,Functional
Nabwalya Rural Health Centre,3405,Health Centre,MOH,-12.4179,31.9736,Muchinga,Functional
Sinda Rural Health Centre,1913,Health Centre,MOH,-14.21665,31.764611,Eastern,Functional
Elite Dental Clinic - Cosmopolitan,4360,Dental clinic,Private,-15.38548,28.313505,Lusaka,Functional
Medi Hope Clinic,4374,General clinic,Private,NA,NA,Lusaka,Closed
Comfort Hospital,4229,1st Level Hospital,Private,-15.4034,28.30141,Lusaka,Functional
Nzoche Health Post,3437,Health Post,MOH,-9.7423,33.209,Muchinga,Functional
John Chivuta Health Post,2971,Health Post,MOH,-9.526221,31.583799,Northern,Functional
Mundubi Rural Health Centre,2761,Health Centre,MOH,-11.17525,29.573962,Luapula,Functional
Shimabala Health Post,1466,Health Post,MOH,-15.67292,28.2395,Lusaka,Functional
Libonda Rural Health Centre,1695,Health Centre,MOH,-15.008999,22.949631,Western,Functional
Chikumbi Rural Health Center,2352,Health Centre,MOH,-12.871667,28.653083,Copperbelt,Functional
Ntantumbila Rural Health Center,3410,Health Centre,MOH,-9.205351,32.283502,Muchinga,Functional
Veronica Chikonda adolescent clinic,4418,Health Centre,MOH,11.361103,29.548795,Luapula,Functional
Kafubu Block Health Post,4112,Health Post,MOH,-13.124087,28.569221,Copperbelt,Functional
Mlera Rural Health Centre,3165,Health Centre,MOH,-14.348157,31.524362,Eastern,Functional
Mambolomoka Rural Health Centre,1341,Health Centre,MOH,-16.0871,22.133593,Western,Functional
Sitwe Rural Health Centre,2812,Health Centre,MOH,-10.83238658,33.18878132,Eastern,Functional
Lueti Rural Health Centre,1459,Health Centre,MOH,-15.706304,22.389053,Western,Functional
Nyangwe Rural Health Centre,2470,Health Centre,MOH,-12.550379,33.213321,Eastern,Functional
Nantale Health Post,1150,Health Post,MOH,-16.87991477,26.60601399,Southern,Functional
Mulanshi Rural Health Centre,3342,Health Centre,MOH,-9.91294,30.70296,Northern,Functional
Namakando Health Post,3233,Health Post,MOH,-14.577061,22.974975,Western,Functional
Chisankane Rural Health Centre,1482,Health Centre,MOH,-15.562,28.3696,Lusaka,Functional
Kasumbalesa Urban Health Centre,2572,Health Centre,MOH,-12.259267,27.7906,Copperbelt,Functional
Mulobezi Rural Health Centre,1167,Health Centre,MOH,-16.7721,25.1695,Western,Functional
Nchanga I Urban Health Centre,2550,Health Centre,MOH,-12.311452,27.520467,Copperbelt,Functional
Chanida Rural Health Centre,1917,Health Centre,MOH,-14.212848,32.298308,Eastern,Functional
Kalenda Rural Health Centre,4701,Health Centre,MOH,NA,NA,North-Western,Functional
Lusaka Dental Surgery,4280,Dental clinic,Private,-15.4034772,28.3014156,Lusaka,Functional
Chitamba Health Post,3417,Health Post,MOH,-9.366261,32.610019,Muchinga,Functional
Kasoma Bangweulu Health Post,2691,Health Post,MOH,-11.3888,29.56828,Luapula,Functional
Nguvu Rural Health Centre,2124,Health Centre,MOH,-13.446612,22.048861,North-Western,Functional
Kundamfumu Rural Health Center,3597,Health Centre,MOH,-11.545767066775,28.754106470203,Luapula,Functional
intercity Health Post,3909,Health Post,MOH,NA,NA,Lusaka,Functional
Kakumba  Health Post,2512,Health Post,MOH,-12.39112,33.15667,Eastern,Functional
Chibale Health Post,3606,Health Post,MOH,-14.019142,31.459822,Eastern,Functional
Chimfunshi Rural Health Centre,2545,Health Centre,MOH,-12.31723,27.633513,Copperbelt,Functional
Lwahumba Health Post,1628,Health Post,MOH,-15.210539,22.374851,Western,Functional
Chisanzu Health Post,3025,Health Post,MOH,-9.122323,31.80387,Northern,Functional
Nyalugwe Rural Health Centre,3455,Health Centre,MOH,-14.73961316,30.36518191,Eastern,Functional
Sikushi Health Post,1568,Health Post,MOH,-15.327339,22.418099,Western,Functional
Shamputa Health post,3738,Health Post,MOH,-14.046943,27.873249,Central,Functional
Tug-Argan Urban Health Centre,3298,Health Centre,ZDF,-13.08660333,28.75756667,Copperbelt,Functional
ZAF Kabwe Urban Health Centre,3135,Health Centre,ZDF,NA,NA,Central,Functional
Mbabala Rural Health Centre,2732,Health Centre,MOH,-11.222423,29.802072,Luapula,Functional
Chembe Health Post,2393,Health Post,MOH,-12.80393733,27.98731333,Copperbelt,Functional
Chinyingi Rural Health Centre,4017,Health Centre,Faith Based,-13.63378160234,23.60033859375,North-Western,Functional
Kaabo Rural Health Post,1421,Health Post,MOH,-15.8323106,28.106273,Southern,Functional
Kambowa Rural Health Center,2250,Health Centre,MOH,-13.10365,28.800733,Copperbelt,Functional
Mwembeshi Secondary Health Post,4362,Health Post,MOH,-15.417577,28.107404,Lusaka,Functional
Lilayi Farm Consulting Room,4320,Others,Private,NA,NA,Lusaka,Functional
Medaid Health Care Limited,4283,General clinic,Private,-15.420393938787,28.3244596875,Lusaka,Functional
Njipi Rural Health Center,2673,Health Centre,MOH,-11.5254,29.7173,Luapula,Functional
Mulumbi Rural Health Center,3314,Health Centre,MOH,-11.55589,29.16306,Luapula,Functional
Miseshi Urban Health Center,3812,Health Centre,MOH,-12.47896,28.11456,Copperbelt,Functional
Mocaraidi Clinic,4361,Diagnostic centre,Private,NA,NA,Lusaka,Functional
Mulalila Health Post,1819,Health Post,MOH,-14.479259,24.984521,Western,Functional
Prisons Urban Health Centre,2591,Health Centre,MOH,-12.185296,26.3942587,North-Western,Functional
Magwero Rural Health Centre,2065,Health Centre,MOH,-13.6554,32.7752,Eastern,Functional
Aluni Health Post,3921,Health Post,MOH,-11.805999273585,31.203564301758,Muchinga,Functional
Matondo Health Post,4043,Health Post,MOH,-13.505625868406,23.2268034375,North-Western,Functional
Salunda Health Post,1562,Health Post,MOH,-15.34196949,22.74350872,Western,Functional
Chitope Rural Health Centre,1674,Health Centre,MOH,-15.111326,30.13461,Lusaka,Functional
Lubengele Urban Health Centre,2525,Health Centre,MOH,-12.357133,27.817592,Copperbelt,Functional
Chitakata A Health Post,1906,Health Post,MOH,-14.243184,28.418062,Central,Functional
Sihole Rural Health Centre,1526,Health Centre,MOH,-15.40170859,22.83036807,Western,Functional
Sikumbi Rural Health Centre,1232,Health Centre,MOH,-16.4695,23.4567,Western,Functional
Nakonde District Hospital,3424,1st Level Hospital,MOH,-9.35125,32.704282,Muchinga,Functional
Hachipilika Rural Health Center,1347,Health Centre,MOH,-16.069315,28.492496,Southern,Functional
Fiwale Rural Health Center,2205,Health Centre,MOH,-13.205167,28.71715,Copperbelt,Functional
Masuba Health Post,3214,Health Post,MOH,-9.852227,31.068797,Northern,Functional
Bwalya Mponda Rural Health Center,3458,Health Centre,MOH,-11.544752,30.324691,Luapula,Functional
Kaundula Rural Health Center,3587,Health Centre,MOH,-14.1931,29.661169,Central,Functional
Mapapa Rural Health Post,3554,Health Post,MOH,-13.625659,29.382485,Central,Functional
Namakombwe Health Post,3619,Health Post,MOH,-16.5339,25.0135,Western,Functional
Musele Rural Health Centre,2613,Health Centre,MOH,-12.142564,25.393266,North-Western,Functional
Kasenga Health Post,1644,Health Post,MOH,-15.1829,28.4853,Lusaka,Functional
Mulonga health post,3441,Health Post,MOH,-11.411281,30.572668,Muchinga,Functional
Mulauli Health Post,1003,Health Post,MOH,-16.949374,25.15954,Western,Functional
Franco Urban Health Centre,2219,Health Centre,MOH,-13.162467,28.465088,Copperbelt,Functional
Ndoka Health Post,1490,Health Post,MOH,-15.50481478,22.91307248,Western,Functional
Kapululira Rural Health Centre,1377,Health Centre,MOH,-15.9677,28.8348,Southern,Functional
Nomai Health Post,3510,Health Post,MOH,-15.346614,23.242219,Western,Functional
Chinkobo Health Post,2707,Health Post,MOH,-11.336733,30.672204,Muchinga,Functional
Muzabula Health Post,2614,Health Post,MOH,-12.1320823,26.3668127,North-Western,Functional
Wusakile Mine Hospital,2372,2nd Level Hospital,Private,-12.84321,28.21255,Copperbelt,Functional
Kyangozhi Rural Health Centre,4698,Health Centre,MOH,NA,NA,North-Western,Functional
Muyombe District Hospital,4284,1st Level Hospital,MOH,-10.5844,33.46676,Muchinga,Functional
Luubwe Rural Health Centre,1418,Health Centre,MOH,-15.835857,26.283417,Southern,Functional
Chamboli J Clinic (Mopani),2358,Health Centre,MOH,-12.85885,28.22517,Copperbelt,Functional
Chipako Rural Health Center,2671,Health Centre,MOH,-11.5425,29.6722,Luapula,Functional
Good News Clinic,3670,Health Post,Faith Based,-8.75985,31.113575,Northern,Functional
Chishinka Health centre,3726,Health Centre,MOH,-14.311952,29.083352,Central,Functional
Upper Lusemfwa  Health Post,3777,Health Post,MOH,-13.475264,29.449102,Central,Functional
Nitrogen Chemicals of Zambia,1449,Diagnostic centre,Private,-15.744565,28.164204,Lusaka,Functional
Kaswende Health post,3731,Health Post,MOH,-14.436011,27.996126,Central,Functional
Victoria Hospital,4231,1st Level Hospital,Private,-15.386152,28.322457,Lusaka,Functional
Milima Rural Health Centre,3376,Health Centre,MOH,-9.91287,31.22953,Northern,Functional
Victoria Falls Urban Health Centre,1009,Health Centre,MOH,-17.9303,25.87018,Southern,Functional
Hakunkula Rural Health Centre,1363,Health Centre,MOH,-16.01934393,27.56220784,Southern,Functional
Lukolongo Health Post,1457,Health Post,MOH,-15.718205,28.255011,Lusaka,Functional
Katutwa Health Post,2983,Health Post,MOH,-9.4420166,30.4071496,Northern,Functional
Kapesa Health post,3299,Health Post,MOH,-10.047333,28.75903,Luapula,Functional
Imusho Rural Health Centre,1045,Health Centre,MOH,-17.5314,23.22331,Western,Functional
Lualizi Health Post,3436,Health Post,MOH,-10.26774,32.75785,Muchinga,Functional
Lubansa Health Post,3801,Health Post,MOH,-12.340515,27.915224,Copperbelt,Functional
Roan Antelope Referral Hospital,2228,2nd Level Hospital,MOH,-13.13633,28.387226,Copperbelt,Functional
Misenga Health Post,2435,Health Post,MOH,-12.71512323,27.98809198,Copperbelt,Functional
Kamano Health Post,2356,Health Post,MOH,-12.865283,26.039372,North-Western,Functional
Lubelele Health Post,3232,Health Post,MOH,-14.308569,22.966572,Western,Functional
Ukumwi B Rural Health Centre,3263,Health Centre,MOH,-13.05139,31.04741,Eastern,Functional
Neelkante Health Post,3650,General clinic,Private,-12.975397,28.726488,Copperbelt,Functional
Tazara Rural Health Post,3775,Health Post,MOH,-13.6366777,29.403148,Central,Functional
Mukandankunda Health Centre,4021,Health Centre,MOH,-13.975188865815,25.40209640625,North-Western,Functional
Kabinga Rural Health Centre,2685,Health Centre,MOH,-11.443168,30.616589,Muchinga,Functional
Kalikeka Health Post,2876,Health Post,MOH,-10.217307,31.842331,Northern,Functional
Tazara Health Post,3383,Health Post,MOH,-13.63699,29.403656,Muchinga,Functional
State House Clinic,1520,Health Centre,MOH,-15.41596,28.31568,Lusaka,Functional
Gilbert Mukobola Rural Health Post,4653,Health Post,MOH,-13.423,27.4518,Copperbelt,Functional
Mbeta Health Post,1250,Health Post,MOH,-16.391579,23.37139,Western,Functional
State Ranch Health Post,1215,Health Post,MOH,-16.5318,22.455048,Western,Functional
Ntapwila Health Post,3117,Health Post,MOH,-15.192444,28.157168,Central,Functional
Matebo B Rural Health Centre,2392,Health Centre,MOH,-12.808358,25.798164,North-Western,Functional
Mapoma Rural Health Centre,2667,Health Centre,MOH,-11.622334,30.602419,Muchinga,Functional
Makeni Rural Health Post,4102,Health Post,MOH,-14.832308,28.445034,Central,Functional
Muchenja Health Post,3213,Health Post,MOH,-8.376042,29.895897,Northern,Functional
Msima Health Post,3439,Health Post,MOH,-14.6387787,30.9463517,Eastern,Functional
Malata Health Post,1514,Health Post,MOH,-15.424572,28.356458,Lusaka,Functional
Luchembe Health Post,2645,Health Post,MOH,-11.812104,31.262397,Muchinga,Functional
Chama District Hospital,2751,1st Level Hospital,MOH,-11.2008,33.1504,Eastern,Functional
Shoti Health Post,2734,Health Post,MOH,-11.2221,29.04947,Luapula,Functional
Sikunduko Rural Health Centre,1937,Health Centre,MOH,-14.1341,22.4334,Western,Functional
Shibanga Rural Health Centre,1782,Health Centre,MOH,-14.6518,24.0849,Western,Functional
Triple S (CHAI) Health Post,3847,Health Post,MOH,-12.555975,28.115217,Copperbelt,Functional
Mungwi  Baptist Urban Health Centre,2880,Health Centre,MOH,-10.174606,31.363276,Northern,Functional
East of Garnatone Health Post,3807,Health Post,MOH,-12.7346,28.1941,Copperbelt,Functional
ZNS Rural Health Centre,3854,Health Centre,ZNS,-14.4690258,30.8784232,Eastern,Functional
Nyilamba Health Post,4030,Health Post,MOH,-14.165178167583,23.323105469971,North-Western,Functional
Kabula 2 Health Post,1162,Health Post,MOH,-16.800264,23.555275,Western,Functional
Buunga Health Post,3485,Health Post,MOH,-15.694910967355,26.289242402344,Southern,Functional
Nakatwelenge Health Post,4089,Health Post,MOH,-16.118526479071,23.16706527832,Western,Functional
Milyashi East Health Post,3802,Health Post,MOH,-12.419161,27.965029,Copperbelt,Functional
Mufulira Clinic 9 Urban Health Centre,2483,Health Centre,Private,-12.518233,28.200467,Copperbelt,Functional
Muweswa Health Post,4086,Health Post,MOH,-16.067,23.817,Western,Functional
Maheba D Rural Health Centre,2486,Health Centre,MOH,-12.498071,25.923487,North-Western,Functional
Masaba Health Post,2729,Health Post,MOH,-11.23848,28.78011,Luapula,Functional
Kalwala Health Post,3482,Health Post,MOH,-10.595298,32.140807,Muchinga,Functional
Mikomfwa Health Centre,2220,Health Centre,MOH,-13.153867,28.420378,Copperbelt,Functional
Chisongo  Health Post,2723,Health Post,MOH,-11.26865,29.1082,Luapula,Functional
Rukuzye Rural Health Centre,2148,Health Centre,MOH,-13.35486017,32.81376162,Eastern,Functional
Musanya Health Post,3549,Health Post,MOH,-10.36125,32.398781,Muchinga,Functional
Chunga rural health centre,3465,Health Centre,MOH,-9.8155973952689,32.517372462891,Muchinga,Functional
Luembe Rural Health Centre,1891,Health Centre,MOH,-14.2955966,30.5492007,Eastern,Functional
Mutwewankoko Health Post,2827,Health Post,MOH,-10.6961,28.92482,Luapula,Functional
Namusheshe Health Post,3526,Health Post,MOH,-15.059995828742,22.98510421875,Western,Functional
Tulemane Urban Health Centre,3588,Health Centre,MOH,-8.839547,31.355503,Northern,Functional
Phil Optician Mobile Eye Clinic - BAG,4364,Eye clinic,Private,NA,NA,Lusaka,Functional
Chipangali Rural Health Centre,2195,Health Centre,MOH,-13.24895591,32.81561863,Eastern,Functional
Mulonga Rural Health Centre,1263,Health Centre,MOH,-16.3641,22.579397,Western,Functional
Mbanyutu Rural Health Centre,4058,Health Centre,MOH,-14.9539,24.3448,Western,Functional
Nakowa Rural Health Centre,1086,Health Centre,MOH,-17.31589156,26.19292973,Southern,Functional
Kafwanka Health Post,3323,Health Post,MOH,-11.6869,29.48194,Luapula,Functional
Nseluka Rural Health Centre,2905,Health Centre,MOH,-9.933505,31.254675,Northern,Functional
Central Urban Health Centre,2747,Health Centre,MOH,-11.2034,28.887,Luapula,Functional
Shabasonje Rural Health Center,3798,Health Centre,MOH,-15.4672,27.7674,Central,Functional
Mulembo,4706,Health Post,MOH,NA,NA,Central,Functional
Mongu District Hospital,1589,1st Level Hospital,MOH,-15.288731,23.158385,Western,Functional
Mahululo Health Post,3093,Health Post,MOH,-17.74115,25.99462,Southern,Functional
Makeni Urban Health centre,1493,Health Centre,MOH,-15.4813,28.185199,Lusaka,Functional
Kalomo District Hospital,1130,1st Level Hospital,MOH,-17.0306195,26.4774449,Southern,Functional
Mantapala Health Post,3863,Health Post,MOH,-9.4744329683965,28.813179627686,Luapula,Functional
Chisakila Health Post,1390,Health Post,MOH,-15.910175,28.687273,Lusaka,Functional
Nachintyombwe Health Post,3219,Health Post,MOH,-16.1505655,27.8877425,Southern,Functional
Chafulu Rural Health Centre,1932,Health Centre,MOH,-14.160349,31.795201,Eastern,Functional
Kakulunda Rural Health Centre,1924,Health Centre,MOH,-14.1835,23.1671,Western,Functional
Kavungu Health Post,3563,Health Post,MOH,-13.59672,24.206385,North-Western,Functional
Kamakonde Urban Health Center,3808,Health Centre,MOH,-12.82997,28.1452,Copperbelt,Functional
Wusakile GRZ Urban Health Center,3816,Health Centre,MOH,-12.51108,28.13182,Copperbelt,Functional
Mukuba  Chantete Heatlh Post,3838,Health Post,MOH,-12.726773,28.350773,Copperbelt,Functional
Kasinsa Rural Health Centre,1458,Health Centre,MOH,-15.71396,30.122361,Lusaka,Functional
Chainda Urban Health Centre,3265,Health Centre,MOH,-15.386588,28.405251,Lusaka,Functional
Kapara Rural Health Centre,2109,Health Centre,MOH,-13.514,32.519,Eastern,Functional
Chisenga Health Post,3544,Health Post,MOH,-9.041337,31.605587,Northern,Functional
Covand Clinic,4232,General clinic,Private,NA,NA,Lusaka,Functional
Mayukwayukwa Rural Health Centre,1800,Health Centre,MOH,-14.5512,24.1842,Western,Functional
Kapamba Rural Health Centre,2872,Health Centre,MOH,-10.2506,28.751,Luapula,Functional
Lukena Rural Health Centre,1894,Health Centre,MOH,-14.27668256,22.10595034,Western,Functional
Chiawa Rural Health Centre,1393,Health Centre,MOH,-15.896128,29.04299,Lusaka,Functional
L.J. Eye Clinic,4268,Eye clinic,Private,-15.404763,28.29961,Lusaka,Functional
Roma Health Post,3852,Health Post,MOH,-13.099372,28.547103,Copperbelt,Functional
Mtenguleni Health Post,2151,Health Post,MOH,-13.746591,32.460015,Eastern,Functional
Chilila Health Post,2808,Health Post,MOH,-10.864269,28.791791,Luapula,Functional
Kasakalawe Health Post,3047,Health Post,MOH,-8.792065,31.0832882,Northern,Functional
Katimba Rural Health Centre,2064,Health Centre,MOH,-13.65827404,27.33908853,Southern,Functional
Chindeza Rural Health Centre,1943,Health Centre,MOH,-14.114734,31.782097,Eastern,Functional
Kasaba Hospital Affiliated Health Centre,2821,Health Centre,MOH,-10.754841364905,29.734840766865,Luapula,Functional
Kapolyo Rural Health Centre,2890,Health Centre,MOH,-10.112711,31.734388,Northern,Functional
Chipapa Rural Health Centre,1475,Health Centre,MOH,-15.6335,28.2608,Lusaka,Functional
Mulenga Urban Health Center,3814,Health Centre,MOH,-12.86451,28.20727,Copperbelt,Functional
Mulalika Health Post,1481,Health Post,MOH,-15.562075,28.807637,Lusaka,Functional
Kaaba Rural Health Centre,1749,Health Centre,MOH,-14.82377,23.70155,Western,Functional
Munyeu Health Post,1645,Health Post,MOH,-15.4184,28.09736,Lusaka,Functional
Inkunikila Health Post,4052,Health Post,MOH,-15.7643,25.0548,Western,Functional
Kasompe Urban Health Centre,2529,Health Centre,MOH,-12.353152,27.533831,Copperbelt,Functional
Yosamu Health Post,3207,Health Post,MOH,-10.9608,32.03215,Muchinga,Functional
Kansamfu Health Post,3823,Health Post,MOH,-13.200776,28.864334,Copperbelt,Functional
Nachisungu Health Post,3920,Health Post,MOH,-9.78146,32.87674,Muchinga,Functional
Kapata Urban Health Centre,2081,Health Centre,MOH,-13.6247,32.6423,Eastern,Functional
Wellspring Speciality Hospital,4233,1st Level Hospital,Private,-15.388164,28.318405,Lusaka,Functional
Hillview Health Care,4271,Health Centre,Private,-15.339399,28.271439,Lusaka,Permanent closure
Matenda Health Post,2692,Health Post,MOH,-11.381652,28.870619,Luapula,Functional
Kazimaulu Rural Health Centre,1151,Health Centre,MOH,-16.85536468,27.50491602,Southern,Functional
Namilangi Rural Health Centre,1745,Health Centre,MOH,-14.839033,25.052179,Western,Functional
Bangwe Health Post,3817,Health Post,MOH,-13.205237,28.80832,Copperbelt,Functional
Ndole  Health Post,3952,Health Post,MOH,-8.51385,30.46764,Northern,Functional
Mndalanga Health Post,2738,Health Post,MOH,-11.21143557,33.15870861,Eastern,Functional
Kakungu Health Post,4438,Health Post,MOH,NA,NA,Northern,Functional
Kabyolwe Health Post,3061,Health Post,MOH,-8.575964,30.731858,Northern,Functional
Mbila Rural Health Centre,1307,Health Centre,MOH,-16.196212,26.312256,Southern,Functional
Mole Health Post,2966,Health Post,MOH,-9.54295333,29.954935,Northern,Functional
Mukumbe Health Post,3930,Health Post,MOH,-9.6375997012551,32.925103850293,Muchinga,Functional
Mulungushi health Post,4708,Health Post,MOH,-11.76278,29.2686,Luapula,Functional
Ngoma Rural Health Centre,1385,Health Centre,MOH,-15.932279,25.957947,Southern,Functional
Rusangu Rural Health Centre,1239,Health Centre,MOH,-16.44040434,27.53396644,Southern,Functional
Lushishi Health Post,2508,Health Post,MOH,-12.394839,27.490813,Copperbelt,Functional
Katilungu Health Post,2898,Health Post,MOH,-10.015032,31.314142,Northern,Functional
Malamba Health Post,2681,Health Post,MOH,-11.47652,28.7928,Luapula,Functional
Phil Opticians Cross Roads,4323,Eye clinic,Private,-15.4355259,28.3549649,Lusaka,Functional
Kansoka Rural Health Centre,2449,Health Centre,MOH,-12.63074,27.70263,Copperbelt,Functional
Chambulumina Health Post,3728,Health Post,MOH,-13.929978,28.785434,Central,Functional
Kapiri Urban Health Center,3708,Health Centre,MOH,-13.966391,28.676859,Central,Functional
Medicare Opticians - Munali Mall,4365,Eye clinic,Private,-15.405263,28.288368,Lusaka,Functional
Maheba H Rural Health Centre,2638,Health Centre,MOH,-11.910771,25.850085,North-Western,Functional
Kabongo Rural Health Center,2651,Health Centre,MOH,-11.756,29.5079,Luapula,Functional
Satellite 30 Rural Health Centre,3611,Health Centre,MOH,-13.915571,31.700436,Eastern,Functional
Makuzu Rural Health Post,3697,Health Post,MOH,-15.979373461864,26.105736390381,Southern,Functional
Masaiti Boarding Health Post,3818,Health Post,MOH,-13.285353,28.417769,Copperbelt,Functional
South Point Clinic,4159,General clinic,Private,28.275096,-15.315045,Central,Functional
Chilenje  First Level Hospital,1492,1st Level Hospital,MOH,-15.4896,28.33782,Lusaka,Functional
Ikabako Health Post,1669,Health Post,MOH,-15.121787,23.323951,Western,Functional
Mutamino Health Post,1590,Health Post,MOH,-15.288347,28.543301,Lusaka,Functional
Mutenda Rural Health Centre,2577,Health Centre,MOH,-12.427876844629001,27.415411625855,Copperbelt,Functional
Chitapo Health Post,4093,Health Post,MOH,-10.3502,33.29291,Muchinga,Functional
Katanga Health Post,3547,Health Post,MOH,-10.7062,33.46819,Muchinga,Functional
Chisanza Rural Health Centre,3056,Health Centre,MOH,-8.6772133,31.1954545,Northern,Functional
Nsama Rural Health Centre,3494,Health Centre,MOH,-8.89217,29.9486,Northern,Functional
Shikamushile Rural Health Centre,2798,Health Centre,MOH,-10.973631,29.694935,Luapula,Functional
Itontela Health Post,4094,Health Post,MOH,-10.2114,33.30174,Muchinga,Functional
Marian Health Post,3168,Health Post,Faith Based,-15.4169,28.11487,Lusaka,Functional
Mtendere Mission Hospital,1361,2nd Level Hospital,MOH,-16.022035,28.824525,Southern,Functional
Kapopo Health Post,1597,Health Post,MOH,-15.269304,28.194286,Central,Functional
Pharco Life Medical Centre,4426,Health Centre,Private,-15.408595,28.288699,Lusaka,Functional
Lusaka Adventist Dental Services,4277,Dental clinic,Faith Based,-15.4224592,28.2954503,Lusaka,Functional
Great North Road Academy Rehabilitation Centre,4366,Rehabilitation centre,Private,-15.4032536,28.3034574,Lusaka,Functional
Dove Medical Clinic,3893,General clinic,Private,-15.392041,28.2859527,Lusaka,Functional
Chinsanka Rural Health Center,1005,Health Centre,MOH,-11.5638,29.79642,Luapula,Functional
Chikani Rural Health Post,1360,Health Post,MOH,-16.0245446,28.298968,Southern,Functional
Kalyongo Rural Health Center,2676,Health Centre,MOH,-11.5056,28.4011,Luapula,Functional
Planned Parenthood Health Centre,3649,Health Centre,Private,-12.8076143,28.209946,Copperbelt,Functional
Kalenge Health Post,4075,Health Post,MOH,-16.2872,23.18275,Western,Functional
Mayukwayukwa 2 Rural Health Centre,1803,Health Centre,MOH,-14.5503,24.1342,Western,Functional
Kayimba Health Post,4042,Health Post,MOH,-13.91854461667,22.983730927734,North-Western,Functional
Sichitambule Health Post,4095,Health Post,MOH,-10.3302,33.12018,Muchinga,Functional
Mwando Health Post,3333,Health Post,MOH,-10.816316,29.874585,Northern,Functional
Kashima West Health Post,3991,Health Post,MOH,-13.217024526839,24.578121796875,North-Western,Functional
Mery Berg Urban Health Centre,3102,Health Centre,Private,-12.961842,28.633822,Copperbelt,Functional
Ukwimi A Rural Health Centre,3610,Health Centre,MOH,-13.891538,31.649426,Eastern,Functional
Kalonda Health Post,2947,Health Post,MOH,-9.6484,30.974515,Northern,Functional
Kamanengu Health Post,4377,Health Post,MOH,-11.586063,24.762272,North-Western,Functional
Senanga Urban Health Centre,3239,Health Centre,MOH,-16.117824,23.296017,Western,Functional
Nalolo Rural Health Centre,1484,Health Centre,MOH,-15.534,23.1051,Western,Functional
Chipepo Health Centre,1326,Health Centre,MOH,-16.1343,28.834,Southern,Functional
Mwalumina Rural Health Center,1498,Health Centre,MOH,-15.4552,28.8576,Lusaka,Functional
Ilundu Namataa Health Post,1635,Health Post,MOH,-15.20360992,23.3739968,Western,Functional
Kakoma Rural Health Center,2713,Health Centre,MOH,-11.296436,25.208859,North-Western,Functional
Shacele Health Post,3799,Health Post,MOH,-15.357285,27.607828,Central,Functional
Nkole Rural Health Centre,3715,Health Centre,MOH,-13.7656,28.8074,Central,Functional
John Howard Health Post,3877,Health Post,MOH,-15.445963,28.293805,Lusaka,Functional
Masemu Urban Clinic,3486,Health Centre,MOH,-15.739970623834,26.033005610733,Southern,Functional
Lunsemfwa Health centre,3710,Health Centre,MOH,-14.506755,29.122547,Central,Functional
Phil Opticians Arcades,4321,Eye clinic,Private,NA,NA,Lusaka,Functional
TAZAMA Chinsali Pump station Clinic,4375,First-aid stations,Private,-10.663375,32.113114,Muchinga,Functional
Namengo Health Post,3517,Health Post,MOH,-15.73833,23.820769,Western,Functional
Lusitu Rural Health Centre,1313,Health Centre,MOH,-16.1834,28.7502,Southern,Functional
Zokwe Health Post,2554,Health Post,MOH,-12.307496,32.324227,Eastern,Functional
Mutondo Health Post,3330,Health Post,MOH,-10.674941,29.74042,Northern,Functional
Mambilima Mission Hospital,2842,1st Level Hospital,MOH,-10.5173,28.6501,Luapula,Functional
Chimba Rural Health Centre,2909,Health Centre,MOH,-9.892802,31.536705,Northern,Functional
Kama Rural Health Centre,3472,Health Centre,MOH,-15.34417,22.9325,Western,Functional
Nkungu Health Post,1006,Health Post,MOH,-11.4658,29.4809,Luapula,Functional
Chikalawa Rural Health Centre,3164,Health Centre,MOH,-14.488769,31.629905,Eastern,Functional
Chingola Correctional Health Post,4104,Health Post,MOH,-12.325851,27.511863,Copperbelt,Functional
St leo Health Post,3845,Health Post,MOH,-12.586368,28.436806,Copperbelt,Functional
Shukwe Health Post,3988,Health Post,MOH,-13.136022,25.15755,North-Western,Functional
Africa Medicare Services Limited,4103,Health Centre,Private,-12.324687,27.52053,Copperbelt,Functional
Twatasha Rural Health Post,3776,Health Post,MOH,-13.805722,29.463847,Central,Functional
Nkolonga Health Post,3770,Health Post,MOH,-13.589762,29.578668,Central,Functional
Kanchinchi  Health Post,4581,Health Post,MOH,-10.846925,28.740641,Luapula,Functional
Medicare Opticians Limited,4279,Eye clinic,Private,-15.405263,28.288368,Lusaka,Functional
Lukona Rural Health Centre,1561,Health Centre,MOH,-15.34516067,22.74247476,Western,Functional
Phil Opticians Cosmopolitan,4322,Eye clinic,Private,-15.4560164,28.2695663,Lusaka,Functional
Kalonda Rural Helath Centre,1149,Health Centre,MOH,-16.88512039,26.69774026,Southern,Functional
Dangote Private Clinic,3652,General clinic,Private,-13.031031,28.773926,Copperbelt,Functional
Zambezi Hospital Affiliated Health Centre,4018,Health Centre,MOH,-13.544346868895,23.133419648438,North-Western,Functional
Matoya Rural Health Centre,1064,Health Centre,MOH,-17.442942,24.64,Western,Functional
MedProf Medical Centre,3673,Health Centre,Private,-17.875599,25.85486,Southern,Functional
Maule Health Post,2957,Health Post,MOH,-9.588304,31.150301,Northern,Functional
Masese Rural Health Centre,1092,Health Centre,MOH,-17.2847,24.64,Western,Functional
PPZ Health Post,3147,Health Post,MOH,-12.348814,27.832408,Copperbelt,Functional
Chanjoka Health Post,1911,Health Post,MOH,-14.221599,31.907233,Eastern,Functional
Nyawanda Health Post,4049,Health Post,MOH,-13.667,22.517,North-Western,Functional
Mahatma Gandhi Urban Health Centre,2334,Health Centre,MOH,-12.940067,28.654667,Copperbelt,Functional
Northern Re-Settlement Rural Health Centre,2603,Health Centre,MOH,-12.166665,25.442397,North-Western,Functional
Mitwi Health Post,1485,Health Post,MOH,-15.5339767,22.67001339,Western,Functional
Mapamba Rural Health Centre,2616,Health Centre,MOH,-12.1196,32.4367,Eastern,Functional
Nkeyema Rural Health Centre,1736,Health Centre,MOH,-14.869777,25.37993,Western,Functional
Luyaba Rural Health Centre,1325,Health Centre,MOH,-16.13441175,27.37172708,Southern,Functional
UTH Cancer Diseases Hospital,1506,3rd Level Hospital,MOH,-15.433826,28.312777,Lusaka,Functional
ZAF Twinpalm ( 71) Rural Health Center,1516,Health Centre,ZDF,-15.423476,28.404863,Lusaka,Functional
Ngwerere Main Rural Health,1583,Health Centre,MOH,-15.3055,28.3181,Lusaka,Functional
Mutwa Health Post,3238,Health Post,MOH,-16.612008,23.864102,Western,Functional
OMS.OM Medical Services,4286,General clinic,Private,-15.399211200615,28.280514375,Lusaka,Permanent closure
Fwaka Rural Health Center,2611,Health Centre,MOH,-12.1431,29.4365,Luapula,Functional
Lwela Rural Health Center,3312,Health Centre,MOH,-11.4358,29.1175,Luapula,Functional
Chinyama Litapi Health Centre,4025,Health Centre,MOH,-13.569712383847,22.389095917969,North-Western,Functional
Kagoro Rural Health Centre,1905,Health Centre,MOH,-14.2435,32.07099,Eastern,Functional
Sishekanu Health Post,1465,Health Post,MOH,-15.67770711,22.57652391,Western,Functional
Chishinki Health Post,4152,Health Post,MOH,-10.730217,29.117755,Luapula,Functional
Mansa General Hospital,2748,2nd Level Hospital,MOH,-11.2029,28.8948,Luapula,Functional
Kasaba Mission Hospital,2820,1st Level Hospital,Faith Based,-10.75504,29.734308,Luapula,Functional
Chitoshi Rural Health Centre,2891,Health Centre,MOH,-10.109737,30.192419,Northern,Functional
Katyetye Health Post,3415,Health Post,MOH,-10.07892,32.575645,Muchinga,Functional
Jamba Rural Health Centre,1304,Health Centre,MOH,-16.2003,28.5676,Southern,Functional
Kalaba Health Post,3326,Health Post,MOH,-10.625413,29.60914,Northern,Functional
Mwense District Hospital,2855,1st Level Hospital,MOH,-10.3837,28.7054,Luapula,Functional
Kamami Health Post,4153,Health Post,MOH,-10.47732,29.04798,Luapula,Functional
Kafunkha Health Post,1950,Health Post,MOH,-14.0868,31.94838,Eastern,Functional
Kankumba Rural Health Center,1661,Health Centre,MOH,-15.14353098,29.9296838,Lusaka,Functional
CBTO Health Post,3171,Health Post,MOH,-15.3721,28.3521,Lusaka,Functional
Ndungo Health Centre,3556,Health Centre,MOH,-13.68179,24.297579,North-Western,Functional
Rural Reconstruction Health Post,3844,Health Post,MOH,-12.606216,28.393566,Copperbelt,Functional
Miluji Health Post,3983,Health Post,MOH,-14.23393,24.76731,North-Western,Functional
TMS Hospital,1522,1st Level Hospital,Private,-15.41384,28.35343,Lusaka,Functional
St Joseph Rural Health Centre,2347,Health Centre,MOH,-12.89157,28.01325,Copperbelt,Functional
Nambo Health Post,3769,Health Post,MOH,-13.624537,29.768178,Central,Functional
Kapasa Makasa University Clinic,4376,First-aid stations,Private,-10.608907,32.216689,Muchinga,Functional
Absolute Health Medical Centre,4414,General clinic,Private,-10.20289,31.20221,Northern,Functional
Kangulunga Health Post,4048,Health Post,MOH,-13.700168342825,22.363003388672,North-Western,Functional
Zesco Musonda Rural Health Centre,2825,Health Centre,Private,-10.71139,28.80819,Luapula,Functional
Mikose Health Post,3054,Health Post,MOH,-8.69718167,29.8559533,Northern,Functional
Mwanaute Rural Health Centre,4702,Health Centre,MOH,NA,NA,North-Western,Functional
Kanzala Rural Health Centre,2639,Health Centre,MOH,-11.887548,25.256936,North-Western,Functional
Kabongo Health Post,2858,Health Post,MOH,-10.36598,29.05517,Luapula,Functional
Kalimansenga Health Post,4430,Health Post,MOH,NA,NA,Lusaka,Functional
Msekera Rural Health Centre,2073,Health Centre,MOH,-13.64,32.5582,Eastern,Functional
Luena Camp Hospital,3227,Health Centre,ZDF,-14.841,24.808,Western,Functional
National Heart Hospital,1528,3rd Level Hospital,MOH,-15.39785,28.38408,Lusaka,Functional
Ndoki Rural Health Centre,4127,Health Centre,MOH,-10.5128,30.3621,Northern,Functional
Liumba Rural Health Centre,1702,Health Centre,MOH,-14.99609536,22.46244836,Western,Functional
Lumezi Hospital Affiliated Hlth Centre,2475,Health Centre,Faith Based,-12.541642,33.037652,Eastern,Functional
Buntungwa Urban Health Center,2746,Health Centre,MOH,-11.2034,28.8763,Luapula,Functional
Mungule Rural Health Centre,1621,Health Centre,MOH,-15.2184,28.1561,Central,Functional
Chisanga  Rural Health Center,3640,Health Centre,Faith Based,-13.588111,28.900789,Central,Functional
Chingola Dental/Eye Clinic,4105,Eye clinic,MOH,-12.322422,27.515432,Copperbelt,Functional
Kakulu Health Post,3706,Health Post,MOH,-14.0886,28.5972,Central,Functional
Phil Opticians Nkwazi Road,4324,Eye clinic,Private,-15.4190192,28.2804414,Lusaka,Functional
M M I Steel Mill Clinic,4289,General clinic,Private,-15.4368124,28.2351192,Lusaka,Permanent closure
Namseche Rural Health Centre,2060,Health Centre,MOH,-13.6726,32.6416,Eastern,Functional
Hajamba  Health Post,1163,Health Post,MOH,-16.79442748,27.49665231,Southern,Functional
Kakusu Health Post,3004,Health Post,MOH,-9.330014,31.059883,Northern,Functional
Shamilimo Health Post,4431,Health Post,MOH,NA,NA,Central,Functional
Kaleya Urban Clinic,1394,Health Centre,MOH,-15.891727,27.678114,Southern,Functional
Mangango HAHC (St. Joseph),3228,Health Centre,Faith Based,-14.657,24.511,Western,Functional
Chipili Rural Health Centre,2823,Health Centre,MOH,-10.7258,29.0896,Luapula,Functional
Lumei Health Post,1746,Health Post,MOH,-14.8355602,22.56566622,Western,Functional
Misaka Health Post (Ndola),3851,Health Post,MOH,-12.923449,28.529928,Copperbelt,Functional
Lumano Health Post,3150,Health Post,MOH,-13.143183,28.695478,Copperbelt,Functional
Ngulwana Health Post,1792,Health Post,MOH,-14.603638,23.125516,Western,Functional
Chitokoloki Mission Hospital,2021,1st Level Hospital,Faith Based,-13.651178410074,23.07418425293,North-Western,Functional
Luatula Health Post,2937,Health Post,MOH,-9.734728,29.080238,Luapula,Functional
Nyembe Rural Health Centre,1973,Health Centre,MOH,-14.032502,31.954356,Eastern,Functional
Mt. Makulu Health Post,1576,Health Post,MOH,-15.322879,28.24148,Lusaka,Functional
Kabange Rural Health Center,3306,Health Centre,MOH,-11.44169,28.99806,Luapula,Functional
Kaminzekenzeke Health Centre,3977,Health Centre,MOH,-13.73625,25.548555,North-Western,Functional
Tena Ultrasound Diagnostic Service,4449,Diagnostic centre,Private,-12.186614,26.398374,North-Western,Functional
Kayosha Rural Health Centre,1634,Health Centre,MOH,-15.2037,28.2374,Central,Functional
Masasabi Rural health Post,3584,Health Post,MOH,-15.612263693203,26.25903,Southern,Functional
Â Chaisa Urban Health Centre,1535,Health Centre,MOH,-15.38441,28.282861,Lusaka,Functional
Katonga Health Post,3694,Health Post,MOH,-12.293872,29.992134,Central,Functional
Kabowa Health Post,4621,Health Post,MOH,NA,NA,Central,Functional
George Urban Health Centre,1539,Health Centre,MOH,-15.379271,28.238473,Lusaka,Functional
Mushukula Health Post,4097,Health Post,MOH,-14.3761963,22.15097508,Western,Functional
Katukwe Health post,3740,Health Post,MOH,-13.952411,28.060298,Central,Functional
Mufulira Clinic 3 Urban Health Centre,2478,Health Centre,MOH,-12.537767,28.22325,Copperbelt,Functional
Chitimukulu Rural Health Centre,2897,Health Centre,MOH,-10.0188737,31.616153,Northern,Functional
Nyanje Hospital Affiliated Health Centre,1866,Health Centre,Faith Based,-14.380935,31.796251,Eastern,Functional
Kipemba Rural Health Centre,4700,Health Centre,MOH,NA,NA,North-Western,Functional
Kalelezyi Health Post,3286,Health Post,MOH,-16.60617571,28.13708444,Southern,Functional
Mwami Wellness Health Centre,2051,Health Centre,MOH,-13.715,32.81,Eastern,Functional
Chikomeni Rural Health Centre,2440,Health Centre,MOH,-12.691037,32.874721,Eastern,Functional
Ngimbu Rural Health Centre,1858,Health Centre,MOH,-14.392683,23.326454,Western,Functional
Mweshi Health Post,2859,Health Post,MOH,-10.3593,28.69426,Luapula,Functional
Tapo Rural Health Centre,1876,Health Centre,MOH,-14.35321307,22.05826786,Western,Functional
Kanyama Rural Health Center,2686,Health Centre,MOH,-11.43879,24.749033,North-Western,Functional
Kalengwa Health Centre,3976,Health Centre,MOH,-13.463229,25.002089,North-Western,Functional
Nyamikanda Health Post,4378,Health Post,MOH,-11.401536,24.64442,North-Western,Functional
Matongo,4442,Health Post,MOH,-11.418807,30.201638,Luapula,Functional
Chikankata Mission Hospital,1297,2nd Level Hospital,Faith Based,-16.229237,28.1446943,Southern,Functional
Kansonta Health Post,4154,Health Post,MOH,-10.42703,29.38535,Luapula,Functional
Kasonde Kombo Kombo Health Post,4131,Health Post,MOH,-10.755273,30.233049,Northern,Functional
Chipeso Rural Health Centre,1638,Health Centre,MOH,-15.1963,27.9972,Central,Functional
Mutti Medical Services Limited,4287,General clinic,Private,-15.420393938787,28.3244596875,Lusaka,Functional
UNICOHS University Hospital,4235,1st Level Hospital,Private,-15.365443,28.226363,Lusaka,Functional
Chishi Rural Health Centre,2784,Health Centre,MOH,-11.086601,29.847539,Luapula,Functional
Mufulira Clinic 6 Urban Health Centre,2469,Health Centre,Private,-12.550667,28.2364,Copperbelt,Functional
Kapungwe Health Post,1849,Health Post,MOH,-14.42123,31.528502,Eastern,Functional
Kamilende Rural Health Centre,1927,Health Centre,MOH,-14.178486,23.399228,Western,Functional
Charles Mulando Rural Health Post,4707,Health Post,MOH,NA,NA,Central,Functional
Chipata First Level Hospital,1546,1st Level Hospital,MOH,-15.370545,28.294369,Lusaka,Functional
Keyana Rural Health Centre,1367,Health Centre,MOH,-15.99180588,22.544603,Western,Functional
Chanyalubwe Health Post,2499,Health Post,MOH,-12.43293,32.917366,Eastern,Functional
Muyashi Rural Health Centre,2421,Health Centre,MOH,-12.763917,26.017262,North-Western,Functional
Mutombe Health Post,4433,Health Post,MOH,NA,NA,Central,Functional
Kambole Chansa Health Post,3212,Health Post,MOH,-8.490066,29.671653,Northern,Functional
Sahandu Health Post,3625,Health Post,MOH,-11.1123,24.141,North-Western,Functional
Kawambwa District Hospital,2923,1st Level Hospital,MOH,-9.799652,29.074812,Luapula,Functional
Kapumfi Health Post,4236,Health Post,MOH,-11.4228,30.3952,Muchinga,Functional
Kampekete Rural Health Center,1529,Health Centre,MOH,-15.3911,28.7625,Lusaka,Functional
Civic Center Urban Health Centre,1629,Health Centre,MOH,-15.2094,28.330106,Lusaka,Functional
Jivundu Health Post,3972,Health Post,MOH,-13.103146,24.690597,North-Western,Functional
Mambungo Health Post,4071,Health Post,MOH,-14.004,22.798,Western,Functional
Chafye,4441,Health Post,MOH,-11.548483,30.323875,Luapula,Functional
Luampa Mission Hospital,4121,1st Level Hospital,Faith Based,-15.057099,24.443092,Western,Functional
Chifusa Rural Health Centre,1190,Health Centre,MOH,-16.66636731,26.77060029,Southern,Functional
Mimbulu Health Post,4155,Health Post,MOH,-10.40888,29.29951,Luapula,Functional
Kamaila Health Post,1681,Health Post,MOH,-15.096204,28.309429,Central,Functional
Orbit Health Care Services Limited,4288,General clinic,Private,-15.414877,28.29246,Lusaka,Functional
Chilubi Mainland District Hospital,2799,1st Level Hospital,MOH,-10.970912,30.103231,Northern,Functional
Levi Health Post,2967,Health Post,MOH,-9.54143,29.4888,Northern,Functional
Sakayi Health Post,4045,Health Post,MOH,-13.953865604568,23.182858125,North-Western,Functional
Mafinga District Hospital,4282,1st Level Hospital,MOH,-10.2288,33.36006,Muchinga,Functional
Itufa Rural Health Centre,1412,Health Centre,MOH,-15.855,23.3074,Western,Functional
ZASTI Rural Health Centre,1578,Health Centre,MOH,-15.3185,28.4419,Lusaka,Functional
Mabo Health Post,2684,Health Post,MOH,-11.45562,28.43203,Luapula,Functional
Katwatwa Health Post,3067,Health Post,MOH,-8.46091,30.19385,Northern,Functional
Lumbe Health Post,1199,Health Post,MOH,-16.5949,24.90911,Western,Functional
Mushiwe ZFDS Health Post,2011,Health Post,MOH,-13.8749,28.0353,Copperbelt,Functional
Kasamba Rural Health Centre,2190,Health Centre,MOH,-13.258993,24.498095,North-Western,Functional
Itimpi Urban Health Center,2430,Health Centre,MOH,-12.738783,28.169967,Copperbelt,Functional
Mushota Rural Health Center,2919,Health Centre,MOH,-9.815693,29.390685,Luapula,Functional
Mweshi,4440,Health Post,MOH,-9.570958,28.77821,Luapula,Functional
Chibondo Rural Health Centre,2824,Health Centre,MOH,-10.7176,28.6694,Luapula,Functional
Ntembo Health post,2910,Health Post,MOH,-9.877165,29.367874,Luapula,Functional
Siabunkululu Rural Health Centre,1229,Health Centre,MOH,-16.47612124,26.66718646,Southern,Functional
Musonweji Health Post,3986,Health Post,MOH,-13.730403,25.015337,North-Western,Functional
Mwandi Mission Hospital,1049,1st Level Hospital,Faith Based,-17.5099,24.8169,Western,Functional
Muntemba Rural Health Centre,1699,Health Centre,MOH,-15.003658,27.829093,Central,Functional
Mwachisompola First Level Hospital,3683,1st Level Hospital,MOH,-14.906274,27.9921,Central,Functional
St John Paul II Orthopedic Mission Hospital,4237,1st Level Hospital,Private,-15.450736,28.266678,Lusaka,Functional
Luampa Hospital Affiliated Health Centre,4054,Health Centre,Faith Based,-15.057,24.4433,Western,Functional
Chimpili Rural Health Centre,2899,Health Centre,MOH,-10.01342,29.898571,Luapula,Functional
Kampamule Health Post,1982,Health Post,MOH,-14.01548,31.614341,Eastern,Functional
Nsweta Health post,2674,Health Post,MOH,-11.524021,24.831563,North-Western,Functional
Chunga Sub-Centre Health Post,1555,Health Post,MOH,-15.357811,28.252011,Lusaka,Functional
Mushipashi Rural Health Centre,2013,Health Centre,MOH,-13.866931,27.887589,Copperbelt,Functional
Malubeni Health Post,3804,Health Post,MOH,-12.328769,27.640812,Copperbelt,Functional
Mwami Hospital Affiliated Health Centre,2030,Health Centre,MOH,-13.8046,32.7594,Eastern,Functional
Muyombe Rural Health Centre,2837,Health Centre,MOH,-10.57722,33.44962,Muchinga,Functional
Kafulafuta GRZ  Rural Health Center,2153,Health Centre,MOH,-13.334633,28.568433,Copperbelt,Functional
Dimpos,4435,Health Centre,Private,-11.1996503,28.8908086,Luapula,Functional
Silumbu Rural Health Centre,1144,Health Centre,MOH,-16.9211,23.87183,Western,Functional
Moonga Health Post,3091,Health Post,MOH,-16.33312,28.2844,Southern,Functional
Vundoka Health Post,3010,Health Post,MOH,-9.273459,31.772004,Northern,Functional
Chisanga  Health Post,2022,Health Post,MOH,-13.832014,27.836629,Copperbelt,Functional
Lokomwila Health Post,4240,Health Post,MOH,-11.3927,30.4552,Muchinga,Functional
Mitete Rural Health Centre,1871,Health Centre,MOH,-14.3672,23.0856,Western,Functional
Mulumbwa Mini Hospital,4380,Health Centre,MOH,-16.1719,27.2718,Southern,Functional
Fiwila Rural Health Center,3641,Health Centre,Faith Based,-13.9709,29.606,Central,Functional
Tente Health Post,4583,Health Post,MOH,-10.234254,28.725244,Luapula,Functional
Chamulimba Rural Health Post,4446,Health Post,MOH,-15.33759,28.894642,Lusaka,Functional
Malcom Marcopolo Mini Hospital,3881,Health Centre,MOH,-15.4641,28.22281,Lusaka,Functional
Forest Park Specialised Hospital,4239,1st Level Hospital,Private,-15.408823,28.278502,Lusaka,Functional
METROPOLIS PATHOLOGY SPECIALIST,4612,Diagnostic centre,Private,NA,NA,Central,Functional
Bombwe,4676,Health Post,MOH,NA,NA,Southern,Functional
Nyaluwiro Health Post,1952,Health Post,MOH,-14.084589,31.492287,Eastern,Functional
Chamakubi Health  Post,4108,Health Post,MOH,-12.271141,27.261535,Copperbelt,Functional
Mofu Rural Health Centre,2777,Health Centre,MOH,-11.109305,30.358137,Northern,Functional
Situnga Health Post,1374,Health Post,MOH,-15.85,23.3,Western,Functional
Chibwika Rural Health Centre,2620,Health Centre,MOH,-12.072787,24.302923,North-Western,Functional
Mukonshi Rural Health Centre,2884,Health Centre,MOH,-10.1334,29.1509,Luapula,Functional
Mukosho Health Post,2169,Health Post,MOH,-13.29895,24.21956,North-Western,Functional
Katandano Zambia National Service Rural Health Centre,2624,Health Centre,ZNS,-12.038687,26.466944,North-Western,Functional
ZAF Lusaka (Base) Rural Health Centre,1564,Health Centre,ZDF,-15.336329,28.437163,Lusaka,Functional
Katuyola Rural Health Center,2658,Health Centre,MOH,-11.716382,24.547529,North-Western,Functional
Faith Baptist (Kakolo) Clinic,3647,Health Centre,Faith Based,-12.8068958,28.3213329,Copperbelt,Functional
Alwima Medical Center,3656,Health Centre,Private,-15.3529,28.54451,Lusaka,Functional
Twaileta Min Hospital,4436,1st Level Hospital,MOH,-8.5256,29.0106,Luapula,Functional
Chibamba Health Post,3400,Health Post,MOH,-10.565108,31.82828,Muchinga,Functional
Mansa District Hospital,2726,1st Level Hospital,MOH,-11.259779,28.89542,Luapula,Functional
Litambya Rural Health Centre,1349,Health Centre,MOH,-16.067,23.3052,Western,Functional
Muoyo Rural Health Centre,1480,Health Centre,MOH,-15.5723,23.2545,Western,Functional
Gulumunyanga Health Post,3282,Health Post,MOH,-16.69252165,28.01313931,Southern,Functional
Malundu Rural Health Centre,1350,Health Centre,MOH,-16.06604685,27.28091989,Southern,Functional
Murundu Rural Health Centre,2491,Health Centre,MOH,-12.483522,28.316832,Copperbelt,Functional
Champhande Rural Health Centre,2012,Health Centre,MOH,-13.8719,32.5245,Eastern,Functional
Phil Opticians Twin Palm,4325,Eye clinic,Private,-15.3884143,28.393847,Lusaka,Functional
Mununshi Rural Health Centre,2900,Health Centre,MOH,-10.0099,28.69,Luapula,Functional
Lui-Namabunga Health Post,3235,Health Post,MOH,-16.017371,23.482323,Western,Functional
Mwase-Mphangwe Old Rural Health Centre,2279,Health Centre,MOH,-13.031322,32.94126,Eastern,Functional
Kalweo Rural Health Centre,2031,Health Centre,MOH,-13.802631,28.644532,Copperbelt,Functional
ZNS Chongwe Clinic,1575,Health Centre,ZDF,-15.323045,28.710062,Lusaka,Functional
Mulekatembo Rural Health Centre,2883,Health Centre,MOH,-10.13870171,33.33674577,Muchinga,Functional
Mupandi Health Post,3041,Health Post,MOH,-8.8943514,29.4770716,Northern,Functional
Kashitu Rural Health Center,2058,Health Centre,MOH,-13.675967,28.658617,Copperbelt,Functional
Chinondo Rural Health Center,2127,Health Centre,MOH,-13.436867,28.519617,Copperbelt,Functional
Musungu Rural Health Center,2878,Health Centre,MOH,-10.194319,29.707545,Luapula,Functional
Matushi Health Centre,3982,Health Centre,MOH,-13.509321,24.278523,North-Western,Functional
Kasama Urban Health Centre,3242,Health Centre,MOH,-10.21407,31.1751,Northern,Functional
Kapijimpanga Rural Health Centre,2571,Health Centre,MOH,-12.2595956,26.5189657,North-Western,Functional
Mwenekombe Health Post,3195,Health Post,MOH,-9.97633,32.84688,Muchinga,Functional
Makunka Rural Health Centre,1044,Health Centre,Faith Based,-17.5334,25.6361,Southern,Functional
Mbereshi Mission Hospital Affiliated Health Centre,3305,Health Centre,MOH,-9.753039,28.796572,Luapula,Functional
Chiwuyu Rural Health Centre,1922,Health Centre,MOH,-14.195225,31.831259,Eastern,Functional
Senanga General Hospital,1332,2nd Level Hospital,MOH,-16.146,23.146,Western,Functional
Ipumbu Rural Health Centre,2074,Health Centre,MOH,-13.63776405,27.84502029,Copperbelt,Functional
Twalumba Rural Health Centre,1701,Health Centre,Faith Based,-14.9973,28.1396,Central,Functional
Masempela Rural Health Centre,1102,Health Centre,MOH,-17.25224809,26.93642358,Southern,Functional
Lambwe Chomba Mini Hospital,4437,1st Level Hospital,MOH,-8.411006,29580210,Luapula,Functional
ZNS Airport Rural Health Centre,1581,Health Centre,ZDF,-15.307966,28.440925,Lusaka,Functional
Kabilamwandi Health Post,1795,Health Post,MOH,-14.589764,23.977341,Western,Functional
Minyanya Rural Health Center,2657,Health Centre,MOH,-11.723905,24.804897,North-Western,Functional
Kabalenge Rural Health Center,2932,Health Centre,MOH,-9.77021,28.86173,Luapula,Functional
Kabanda Rural Health Center,2977,Health Centre,MOH,-9.480134,29.588465,Luapula,Functional
Kapisha Health Post,3392,Health Post,MOH,-11.184927,31.597433,Muchinga,Functional
Phil Opticians Woodlands,4326,Eye clinic,Private,NA,NA,Lusaka,Functional
Chilenga RuralHealth Centre,4019,Health Centre,MOH,-14.039146789938,23.73217453125,North-Western,Functional
Lukulu District Hospital,4098,1st Level Hospital,MOH,-14.2444,23.1535,Western,Functional
Filipo Health Post,2915,Health Post,MOH,-9.852365,30.747583,Northern,Functional
Nampeyo Rural Health Centre,1299,Health Centre,MOH,-16.2186191,27.65910013,Southern,Functional
Munyele Health Post,3016,Health Post,MOH,-9.175756,30.172033,Northern,Functional
Matambazi Rural Health Centre,1851,Health Centre,MOH,-14.420845,31.619376,Eastern,Functional
Mbereshi Mission Hospital,3304,1st Level Hospital,Faith Based,-9.75308,28.796407,Luapula,Functional
Sikweya Health Post,1108,Health Post,MOH,-17.18205007,26.6990133,Southern,Functional
Luwi Mission Hospital,2511,2nd Level Hospital,MOH,-12.391262,24.943367,North-Western,Functional
Pemba Main Rural Health Centre,1219,Health Centre,MOH,-16.52023905,27.36507948,Southern,Functional
Sichobo Rural Health Center,3800,Health Centre,MOH,-15.4716,27.7745,Central,Functional
Mukashichimbwe Health Post,3114,Health Post,MOH,-14.86609,27.332913,Central,Functional
Chainama Staff/Student Clinic,4447,General clinic,MOH,-15.3898,28.3553,Lusaka,Functional
A-T Dental Surgery Limited,4379,Dental clinic,Private,-15.3869967,28.3395941,Lusaka,Functional
Mwinilunga District Hospital,2654,1st Level Hospital,MOH,-11.738009,24.43008,North-Western,Functional
Musambeshi Health Post,2941,Health Post,MOH,-9.701134,29.359571,Luapula,Functional
Munyumbwe Rural Health Centre,3276,Health Centre,MOH,-16.64636189,27.77724674,Southern,Functional
Sinungu Rural Health Centre,1429,Health Centre,MOH,-15.8044,23.034300000000002,Western,Functional
Chabilikila Rural Health Center,2961,Health Centre,MOH,-9.54871,28.73623,Luapula,Functional
Kafutuma Rural Health Center,3013,Health Centre,MOH,-9.24168,28.80732,Luapula,Functional
Mwenye Health Post,4113,Health Post,MOH,-13.003976,28.590587,Copperbelt,Functional
Satellite Merrybegg Clinic,4160,Health Centre,Private,NA,NA,North-Western,Functional
Mwanambuyu Rural Health Centre,1726,Health Centre,MOH,-14.92028,24.02038,Western,Functional
Gwembe District Hospital,3269,1st Level Hospital,MOH,-16.49753356,27.60086887,Southern,Functional
Mwanga Health Post,3931,Health Post,MOH,-9.308936,32.35361,Muchinga,Functional
Ikelenge Rural Health Centre,3632,Health Centre,MOH,-11.2401,24.2728,North-Western,Functional
Kazembe Rural Health Centre,2598,Health Centre,MOH,-12.175297,32.563558,Eastern,Functional
Ntoto Health Post,3861,Health Post,MOH,-9.2317127060029,28.807858125,Luapula,Functional
Kasimba Rural Health Centre,1910,Health Centre,MOH,-14.234,24.966,Western,Functional
Saint Johns Medical Center,2596,Health Centre,Private,-12.180471,26.423964,North-Western,Functional
Khuli-khuli Health Post,3247,Health Post,MOH,-11.5516,33.038,Eastern,Functional
Siabbamba Health Post,3271,Health Post,MOH,-16.88182073,27.66177982,Southern,Functional
Mwanamuzya Health Post,4457,Health Post,MOH,-16.1936,28.2113,Southern,Functional
Sote Health Post,2338,Health Post,MOH,-12.935485,30.726086,Central,Functional
Kanyama First Level  hospital,1591,1st Level Hospital,MOH,-15.283,28.2513,Lusaka,Functional
Chimanga Health Centre,4209,Health Centre,MOH,-15.4235753,28.3071378,Lusaka,Functional
Packijax Medical Centre,4448,Health Centre,Private,-15.453295,28.264671,Lusaka,Functional
Chimbofuma Health Post,3853,Health Post,MOH,-13.648431,27.548483,Copperbelt,Functional
Kasisi Rural Health Center,1600,Health Centre,MOH,-15.2671,28.4728,Lusaka,Functional
Chilese Rural Health Center,2097,Health Centre,MOH,-13.555567,28.671717,Copperbelt,Functional
Chingi Health Post,2292,Health Post,MOH,-13.001979,22.726269,North-Western,Functional
Kashikishi Hospital Affiliated Health Center,3006,Health Centre,MOH,-9.31805,28.74944,Luapula,Functional
Mpola  Rural Health Post,4119,Health Post,MOH,-11.1456,24.1631,North-Western,Functional
Katooka Health Post,4120,Health Post,MOH,-11.273,24.2211,North-Western,Functional
Star of Hope,4491,Health Centre,Private,NA,NA,Lusaka,Functional
Mangango Mission Hospital,1781,1st Level Hospital,Faith Based,-14.6446,24.463836,Western,Functional
Chambeshi Health Post,3922,Health Post,MOH,-10.993575775809,31.11498703125,Muchinga,Functional
Chasera Health Post,2369,Health Post,MOH,-12.849368,32.168201,Eastern,Functional
Chipwa Health Post,3060,Health Post,MOH,-8.598697,31.186116,Northern,Functional
Munyumbwe Level 1 Hospital,4118,1st Level Hospital,MOH,-15.456396,28.252125,Southern,Functional
Kapembwa Health Post,3059,Health Post,MOH,-8.617938,30.839833,Northern,Functional
Kapaso Health Post,4241,Health Post,MOH,-11.3658,30.33333,Muchinga,Functional
Butikili Health Post,2130,Health Post,MOH,-13.426881,28.384305,Copperbelt,Functional
Mwanamwalye Rural Health Centre,1245,Health Centre,MOH,-16.4075,24.0092,Western,Functional
Shiwang`andu Urban Health Centre,3206,Health Centre,MOH,-11.2222,31.82748,Muchinga,Functional
Solwezi General Hospital,2593,2nd Level Hospital,MOH,-12.182919,26.421593,North-Western,Functional
Kafweku Rural Health Centre,3956,Health Centre,MOH,-11.233,24.017,North-Western,Functional
Ngundi Health Post,1253,Health Post,MOH,-16.0313,23.454,Western,Functional
Mukulaikwa Rural Health Center,3795,Health Centre,MOH,-15.2671,27.7176,Central,Functional
Kasumpa Health Post,3027,Health Post,MOH,-9.10994,28.798,Luapula,Functional
St. Francis Mission Hospital,1959,2nd Level Hospital,MOH,-14.06451,32.015472,Eastern,Functional
Mukenge Health Post,4036,Health Post,MOH,-13.526989957442,23.1389128125,North-Western,Functional
Zasp Health Post,3262,Health Post,MOH,-12.923,33.13516,Eastern,Functional
Lwatembo Health Post,3475,Health Post,MOH,-15.260104,23.806276,Western,Functional
Sandangombe Health Post,2523,Health Post,MOH,-12.3666067,26.3576318,North-Western,Functional
Chitungu Rural Health Centre,2635,Health Centre,MOH,-11.950442,25.39926,North-Western,Functional
Kataba Rural Health Centre,1503,Health Centre,MOH,-15.4464,23.3343,Western,Functional
Chimtende Rural Health Centre,2006,Health Centre,MOH,-13.9284,31.89202,Eastern,Functional
Nkhanga Rural Health Centre,3261,Health Centre,MOH,-12.9161,33.2249,Eastern,Functional
Choompa  Health Post,1223,Health Post,MOH,-16.5024749,27.49093786,Southern,Functional
Kaoma District Hospital,1754,1st Level Hospital,MOH,-14.805248,24.798082,Western,Functional
Michinka Health Post,2136,Health Post,MOH,-13.414461,28.619352,Copperbelt,Functional
Kasamba Rural Health Centre,2187,Health Centre,MOH,-13.262418,28.2618,Copperbelt,Functional
Muyembe Rural Health Center,2901,Health Centre,MOH,-9.992027,29.117268,Luapula,Functional
Kawambwa Hospital Affiliated Health Center,2928,Health Centre,MOH,-9.79327,29.076635,Luapula,Functional
Kafue General Hospital,1454,2nd Level Hospital,MOH,-15.7346,28.17,Lusaka,Functional
University of Zambia Clinic,4213,Health Centre,MOH,-15.431438,28.30825,Lusaka,Functional
Namanongo Rural Health Post,1609,Health Post,MOH,-15.25141,29.07958,Lusaka,Functional
Lunchinda Rural Health Centre,3064,Health Centre,MOH,-8.50739,28.991,Luapula,Functional
Sachibondu  Rural Health Cenhtre,3636,Health Centre,Faith Based,-11.5209,24.4645,North-Western,Functional
Chilenga Health Centre,4125,Health Centre,MOH,-13.761867846903,23.46850265625,North-Western,Functional
Mayankwa Rural Health Centre,3580,Health Centre,MOH,-14.434758,23.861663,Western,Functional
Mitukutuku Rural Health Centre,2574,Health Centre,MOH,-12.2481686,26.338734,North-Western,Functional
Sibalumbi Health Post,1211,Health Post,MOH,-16.55377492,27.45360796,Southern,Functional
Maano Health Post,1620,Health Post,MOH,-15.220353,27.510567000000002,Lusaka,Functional
Kaoma Urban Health Centre,1751,Health Centre,MOH,-14.80513,24.79811,Western,Functional
Maziba Health Post,1181,Health Post,MOH,-16.704788,23.664184,Western,Functional
Musipazi Rural Health Centre,3527,Health Centre,MOH,-8.681789,31.385084,Northern,Functional
Kamsaro Health Post,2528,Health Post,MOH,-12.353461,33.033917,Eastern,Functional
Shembwe Health Post,1428,Health Post,MOH,-15.82088,27.65132,Southern,Functional
Kwenje Health Post,1983,Health Post,MOH,-14.0142,31.5055,Eastern,Functional
Litoya Rural Health Centre,1468,Health Centre,MOH,-15.6581,23.3407,Western,Functional
Kanemela Health Post,1613,Health Post,MOH,-15.244726,30.221261,Lusaka,Functional
Katanshya Rural Health center,1007,Health Centre,MOH,-11.4545,29.7216,Luapula,Functional
Yambeji  Rural Health Post,3629,Health Post,MOH,-11.1753,24.1721,North-Western,Functional
ZNS Kabwe Urban Health Centre,3137,Health Centre,ZDF,NA,NA,Central,Functional
Nshinso Rural Health Center,3772,Health Centre,MOH,-13.7752746,29.8195208,Central,Functional
Chipungo Rural Health Centre,2042,Health Centre,MOH,-13.7569,32.4856,Eastern,Functional
Kawota  Hospital Affiliated Health   Centre,3631,Health Centre,MOH,-11.1763,24.1883,North-Western,Functional
Chikoyi Peri Urban Health Centre,4128,Health Centre,MOH,-10.2697,29.9279,Northern,Functional
Kanyemba,4454,Health Post,MOH,-10.399526,28.663311,Luapula,Functional
Kampumbu Rural Health Centre,3435,Health Centre,MOH,-10.2535,33.0048,Muchinga,Functional
Salujinga  Rural Health Centre,3621,Health Centre,MOH,-10.9684,24.12311,North-Western,Functional
Lutwa Health Post,1128,Health Post,MOH,-17.03736568,27.60037039,Southern,Functional
Zambia Army Health Post,4455,Health Post,ZDF,-16.7972784,27.0033044,Southern,Functional
Mupambe Health Post,3839,Health Post,MOH,-12.540023,28.273207,Copperbelt,Functional
Itebe Rural Health Centre,1425,Health Centre,MOH,-15.829102,27.551229,Southern,Functional
Kamphambe Rural Health Centre,1979,Health Centre,MOH,-14.023,32.15866,Eastern,Functional
Siamuleya Rural Health Centre,1142,Health Centre,MOH,-16.949855,27.32786667,Southern,Functional
Kakombe Rural Health Centre,2579,Health Centre,MOH,-12.2271461,26.6878972,North-Western,Functional
Shibwalya Kapila Rural Health Centre,2929,Health Centre,MOH,-9.786871,30.800516,Northern,Functional
Nalwashi Rural Health Centre,1254,Health Centre,MOH,-16.3837,23.1007,Western,Functional
Kahare Rural Health Centre,1734,Health Centre,MOH,-14.875053,25.193777,Western,Functional
St Theresa Mission Hospital,2149,1st Level Hospital,Faith Based,-13.3539437,28.4194136,Copperbelt,Functional
Mupapa Rural Health Center,2176,Health Centre,MOH,-13.29145,28.700883,Copperbelt,Functional
Shem Rural Health Centre,3433,Health Centre,MOH,-9.528235,32.901878,Muchinga,Functional
Muzeya Rural Health  Post,3623,Health Post,MOH,-11.0559,24.17568,North-Western,Functional
Baba Medical Centre,4291,General clinic,Private,-15.399211200615,28.25854171875,Lusaka,Functional
Health Esprit,4547,Physiotherapy,Private,-15.4106732,28.3851706,Lusaka,Functional
Mwandasengo Health Post,4060,Health Post,MOH,-14.9211,24.4711,Western,Functional
Lupende,4490,Health Post,MOH,-11.13135,29.202807,Luapula,Functional
Boyole Health Post,3253,Health Post,MOH,-12.11295,33.08224,Eastern,Functional
Kanyenda Rural Health Centre,2128,Health Centre,MOH,-13.4349534,28.2378302,Copperbelt,Functional
Musangu Health Post,1388,Health Post,MOH,-15.92190687,28.03526438,Southern,Functional
Chadiza District Hospital,1960,1st Level Hospital,MOH,-14.061831,32.422264,Eastern,Functional
Nyawa Rural Health Centre,1118,Health Centre,MOH,-17.1013,25.539,Southern,Functional
Kasabi Rural Health Centre,1743,Health Centre,MOH,-14.8613,23.76552,Western,Functional
Namatama Health Post,1028,Health Post,MOH,-17.824226,25.886759,Southern,Functional
Ipusukilo Rural Health Centre,4130,Health Centre,MOH,-10.378908,29.88385,Northern,Functional
Lusu Mission Health Post,1105,Health Post,Faith Based,-17.2127,24.09247,Western,Functional
Pecha Health Post,2879,Health Post,MOH,-10.192192,30.285852,Northern,Functional
Fikonkonta Health Post,4129,Health Post,MOH,-10.459943,30.143689,Northern,Functional
Mayembe Health Post,3427,Health Post,MOH,-9.550752,32.743538,Muchinga,Functional
Mwembeshi Rural Health,1633,Health Centre,MOH,-15.204461,27.555786,Lusaka,Functional
Sepande Mini-Hospital,4384,Health Centre,MOH,-16.896826,NA,Southern,Functional
Mulundu  Health Post,3765,Health Post,MOH,-13.613961,29.4097721,Central,Functional
Fungulwe Rural Health Centre,2213,Health Centre,MOH,-13.098084,28.09539,Copperbelt,Functional
Mutti-Kabelenga Health Services Limited Hospital,4216,1st Level Hospital,Private,-15.4084425,28.2925516,Lusaka,Functional
Optimal Medical and Wellness Centre,4292,General clinic,Private,-15.38407,28.311666,Lusaka,Functional
Nvumabaranda Rural Health Centre,4417,Health Centre,Private,-12.4776,26.407469,North-Western,Functional
Kamafumbu Rural Health Post,3622,Health Post,MOH,-11.0517,24.05679,North-Western,Functional
Vincent Bulaya Health Post,2954,Health Post,MOH,-9.603284,30.550945,Northern,Functional
Albaraka Health Post,3457,Health Post,Private,-15.3762,28.19042,Lusaka,Functional
Allessandras Urban Health Centre,2221,Health Centre,MOH,-13.150921,28.443364,Copperbelt,Functional
Nyakatokoli Health Post,2083,Health Post,MOH,-13.618033,32.078172,Eastern,Functional
Mulele Health Post,1195,Health Post,MOH,-16.626006,23.115026,Western,Functional
Bwembelelo Health Post,2104,Health Post,MOH,-13.5251147,28.2279806,Copperbelt,Functional
Nega Nega Rural Health Centre,1419,Health Centre,MOH,-15.83524,28.02313,Southern,Functional
Chilolwa Rural Health Centre,3418,Health Centre,MOH,-9.571427,32.624834,Muchinga,Functional
Chipundu Health post,3320,Health Post,MOH,-12.23583,29.44194,Luapula,Functional
Simooya Health Post,1191,Health Post,MOH,-16.65039965,27.18419233,Southern,Functional
Mukusi Sawmills Rural Health Centre,1085,Health Centre,MOH,-17.3165,24.16153,Western,Functional
Kabitaka Merrybegg Clinic,4158,Health Centre,Private,-12.18929,26.47641,North-Western,Functional
Namwianga Mission Hospital,1124,1st Level Hospital,Faith Based,-17.06437703,26.48691159,Southern,Functional
Chikando Rural Health Centre,2018,Health Centre,MOH,-13.8386,32.4592,Eastern,Functional
Kasanga Health Post,3601,Health Post,MOH,-11.5114939,28.4434,Luapula,Functional
Malubila Health Post,3760,Health Post,MOH,-13.658297,29.895443,Central,Functional
Chimwemwe UCZ Health Post,4459,Health Post,MOH,-15.3530973,28.2948824,Lusaka,Functional
Optique Clinic,4293,General clinic,Private,-15.42018,28.3433,Lusaka,Functional
Chibuye Rural Health Centre,2781,Health Centre,MOH,-11.106474,29.437628,Luapula,Functional
Zimba Hospital Affiliated Health Centre,1083,Health Centre,MOH,-17.31779214,26.20393022,Southern,Functional
Mbayamusuma Rural Health Centre,1410,Health Centre,Faith Based,-15.856368,27.7547,Southern,Functional
Sianyoolo Rural Health Centre,1248,Health Centre,MOH,-16.234,28.1819,Southern,Functional
Lunzi Rural Health Centre,3250,Health Centre,MOH,-11.69562,33.23124,Eastern,Functional
Nsanja Health Post,4132,Health Post,MOH,-10.356728,29.96659,Northern,Functional
Kanchibiya Resettlement Health Post,4242,Health Post,MOH,-11.7062619,31.207733,Muchinga,Functional
Katima Mulilo Urban Clinic,1058,Health Centre,MOH,-17.4712,24.24279,Western,Functional
Kyakufuma Rural Health Centre,2625,Health Centre,MOH,-12.0362924,26.4007701,North-Western,Functional
Ndingindi Health Post,3412,Health Post,MOH,-9.865795,32.499842,Muchinga,Functional
Kambobe Health Post,2998,Health Post,MOH,-9.358616,30.2305553,Northern,Functional
North Star Alliance Wellness Centre,1354,First-aid stations,MOH,-16.033863,28.844357,Southern,Functional
The Hill Wellness Centre Family Legacy Missions Zambia,4314,General clinic,Private,NA,NA,Lusaka,Functional
Solwezi Hospital Affiliated Health Centre,2594,Health Centre,MOH,-12.182919,26.421593,North-Western,Functional
Mondengwa Mini Hospital,1647,Health Centre,MOH,-15.170237,28.023249,Lusaka,Functional
Munas Clinic,4358,Diagnostic centre,Private,NA,NA,Lusaka,Functional
Mwanjuni Health Post,1603,Health Post,MOH,-15.26092,28.26873,Central,Functional
Sinazeze Hills Mini Hospital,4387,Health Centre,MOH,-17.133948,27.424226,Southern,Functional
ZNS Luanshimba Rural Health Centre,3758,Health Centre,ZDF,-13.709087,29.586333,Central,Functional
Mikunku Health Center,3762,Health Centre,MOH,-13.7908914,29.043297,Central,Functional
Chikabuke Rural Health Centre,2229,Health Centre,MOH,-12.95708,28.14627,Copperbelt,Functional
Nippon Health Clinic,4495,Health Centre,Private,-15.463397,28.2518329,Lusaka,Functional
Lusaka Adventist Clinic,4458,General clinic,Faith Based,-15.339104,28.297042,Lusaka,Functional
Mangelengele Health Post,1673,Health Post,MOH,-15.113436,30.105208,Lusaka,Functional
Chuula Clinic,1400,Health Post,Private,-15.870351,27.688514,Southern,Functional
Machiya Rural Health Centre,2067,Health Centre,MOH,-13.6466,27.6149,Copperbelt,Functional
Kimasala Urban Health Centre,2608,Health Centre,MOH,-12.1513958,26.3861115,North-Western,Functional
Mutwizi Health Post,3543,Health Post,MOH,-9.03328,31.235097,Northern,Functional
Chipata Central Hospital,4388,3rd Level Hospital,MOH,-13.6483,32.6418,Eastern,Functional
Menga Health Post,4133,Health Post,MOH,-10.192942,30.124466,Northern,Functional
Dengwe Rural Health Centre,2212,Health Centre,MOH,-13.1849,25.5002,North-Western,Functional
Kikonge Health Post,3979,Health Post,MOH,-13.110048027006,25.215328828125,North-Western,Functional
Kabula Mwiko Health Post,4243,Health Post,MOH,-11.1657171,31.2744461,Muchinga,Functional
Shikabeta Rural Health Center,1659,Health Centre,MOH,-15.14570776,29.39560448,Lusaka,Functional
Kawama Urban Health Centre,2242,Health Centre,MOH,-13.12128,28.310029,Copperbelt,Functional
Northern Formation Clinic,3366,Health Centre,ZDF,-10.21963,31.16868,Northern,Functional
MerryBegg Health Services,3672,Health Centre,Private,-12.222336,25.411986,North-Western,Functional
Kitwe Eye Hospital,3809,3rd Level Hospital,MOH,-12.8141343,28.2105088,Copperbelt,Functional
Chamubobo Health Post,3858,Health Post,MOH,-13.697327,32.048188,Eastern,Functional
Liande Health Post,3525,Health Post,MOH,-15.744946,23.665245,Western,Functional
Chipata Health Care Private,2072,Health Centre,Private,-13.6402,32.6469,Eastern,Functional
Untold Global Heal-IT Laboratories and Medical Centre,4493,Health Centre,Private,-15.4079481,28.3085003,Lusaka,Functional
Garden Site 3 Community Health Post,4460,Health Post,MOH,-15.3769912,28.2964428,Lusaka,Functional
Makeni Islamic Health Centre,4278,Health Centre,Faith Based,-15.4582123,28.2531654,Lusaka,Functional
New Town Urban Health Centre,2244,Health Centre,MOH,-13.114644,28.404553,Copperbelt,Functional
Kasunga Health Post,3949,Health Post,MOH,-8.926539,31.670332,Northern,Functional
Tungati Rural Health Centre,4134,Health Centre,MOH,-10.550516,29.9857,Northern,Functional
Mbonge Rural Health Centre,2604,Health Centre,MOH,-12.1657971,26.4843642,North-Western,Functional
Nabutezi Rural Health Centre,1237,Health Centre,MOH,-16.2731,28.323,Southern,Functional
Mande Health Post,4088,Health Post,MOH,-15.901712494789,23.259762421875,Western,Functional
Esther Lungu Rural Health Centre,1874,Health Centre,MOH,-14.362866,31.314898,Eastern,Functional
Undi Rural Health Centre,1988,Health Centre,MOH,-13.998327,32.05611,Eastern,Functional
Kabele Health Post,2181,Health Post,MOH,-13.2755,25.501,North-Western,Functional
Kanfinsa Health Post,3848,Health Post,MOH,-12.882115,28.497843,Copperbelt,Functional
Phikamalaza Rural Health Centre,3254,Health Centre,MOH,-12.1252,33.13278,Eastern,Functional
Pemba Sub Health Post,1212,Health Post,MOH,-16.53859923,27.39857649,Southern,Functional
Luswishi Health Post (Mpongwe),2040,Health Post,MOH,-13.7593,28.274,Copperbelt,Functional
Luangwa Urban Health Center,2350,Health Centre,MOH,-12.875867,28.2502,Copperbelt,Functional
SOS Kitwe Health Center,2351,Health Centre,MOH,-12.87485,28.24663,Copperbelt,Functional
Kalunga Health Centre,3562,Health Centre,MOH,-13.388204,23.776054,North-Western,Functional
Vision Care Optician- Manda Hill,4354,Eye clinic,Private,NA,NA,Lusaka,Functional
Shimumbi Rural Health Centre,4135,Health Centre,MOH,-10.703401,30.400859,Northern,Functional
Ishitwe Health Post,3827,Health Post,MOH,-13.49515,28.881816,Copperbelt,Functional
Royal Diagnostic Centre,4296,Diagnostic centre,Private,NA,NA,Lusaka,Closed
Kakushi Health Post,3754,Health Post,MOH,-13.80316,29.630947,Central,Functional
Mukinge Mission Hospital,2178,2nd Level Hospital,Faith Based,-13.2851,25.5118,North-Western,Functional
Jiwundu Rural Health Centre,2599,Health Centre,MOH,-12.173774,25.580638,North-Western,Functional
Location Urban Health Centre,3372,Health Centre,MOH,-10.22214,31.18488,Northern,Functional
Zangamenu Urban Health Centre,2580,Health Centre,MOH,-12.2071686,26.4234103,North-Western,Functional
Luamabwe Rural Health Centre,2034,Health Centre,MOH,-13.785298,28.504753,Copperbelt,Functional
Lupande Health Post,2028,Health Post,MOH,-13.807671,31.893362,Eastern,Functional
Kanyanga Health Post,1040,Health Post,MOH,-17.60645789,26.45349788,Southern,Functional
Lungo Mukuta Rural Health Center,3307,Health Centre,MOH,-11.50194,29.07797,Luapula,Functional
Sitapa Health Post,4496,Health Post,MOH,-15.225553,22.400282,Western,Functional
Indeni Urban Health Centre,2276,Health Centre,Private,-13.03795107,28.67858684,Copperbelt,Functional
Makale Health Post,3616,Health Post,MOH,-14.016579,31.536867,Eastern,Functional
Lewanika Urban Clinic,3524,Health Centre,MOH,-15.265026,23.137206,Western,Functional
Miinga Hospital Affiliated Health Centre,1878,Health Centre,Faith Based,-14.352282,31.152002,Eastern,Functional
St Clara Health Post,2357,Health Post,MOH,-12.8617122,27.682172,Copperbelt,Functional
Kivuku Health Post,2623,Health Post,MOH,-12.04677,26.07238,North-Western,Functional
Mushili Urban Health Centre,2285,Health Centre,MOH,-13.016917,28.62305,Copperbelt,Functional
Kamyanga Health Post,3620,Health Post,MOH,-8.650583,31.300784,Northern,Functional
Chitina Health Post,3752,Health Post,MOH,-13.655397,29.11309,Central,Functional
Dr. Wang Surgery,4351,General clinic,Private,-15.3875238,28.3228052,Lusaka,Functional
Kashiba Health Post,4691,Health Post,MOH,NA,NA,North-Western,Functional
Mum's Care Hospital - HQ,3109,1st Level Hospital,Private,-15.441212,28.294821,Lusaka,Functional
OM Medical Services (Dialysis Centre),4340,General clinic,Private,-15.42255,28.319037,Lusaka,Functional
Luminu Rural Health Centre,2854,Health Centre,MOH,-10.3842,29.159300000000002,Luapula,Functional
Zambezi Rural Health Centre,1065,Health Centre,MOH,-17.4404,24.3777,Western,Functional
Chipi Health Post,4244,Health Post,MOH,-11.483483,30.405924,Muchinga,Functional
Kalengwa South Health Post,2364,Health Post,MOH,-12.853502,28.078771,Copperbelt,Functional
Laurent Chita Health Post,4137,Health Post,MOH,-10.289924,30.214474,Northern,Functional
Luwingu District Hospital,4136,1st Level Hospital,MOH,-10.254673,29.924269,Northern,Functional
Chaminuka Health Post,3169,Health Post,MOH,-15.2545,28.31422,Lusaka,Functional
Mankhungwe Health Post,1786,Health Post,MOH,-14.636424,31.11327,Eastern,Functional
Chavuma mission HAHC,2268,1st Level Hospital,Faith Based,-13.059024,22.734083,North-Western,Functional
Kamanga Clinic,3888,General clinic,MOH,NA,NA,Lusaka,Functional
Chitanda Lumamba,4497,1st Level Hospital,Faith Based,-14.63887,27.59458,Central,Functional
Matero First Level Hospital,1540,1st Level Hospital,MOH,-15.372929,28.264467,Lusaka,Functional
Kalulushi Main Urban Health Centre,2373,Health Centre,MOH,-12.839887,28.100777,Copperbelt,Functional
Chisanga Urban Health Centre,3373,Health Centre,MOH,-10.24539,31.19603,Northern,Functional
Simalundu Rural Health Centre,1036,Health Centre,MOH,-17.65951098,26.55187031,Southern,Functional
Luena Rural Health Centre,4138,Health Centre,MOH,-10.651842,30.207757,Northern,Functional
Kalungu Rural Health Centre,3426,Health Centre,MOH,-9.6859,32.7048,Muchinga,Functional
Kalongelo Health Post,3989,Health Post,MOH,-13.692109,25.554193,North-Western,Functional
Mukalashi,4463,Health Centre,MOH,-14.619461,28.181913,Central,Functional
Momboshi  Health Post,3764,Health Post,MOH,-13.902273,29.586072,Central,Functional
Chipeketi Rural Health Post,3173,Health Post,MOH,-15.1945,29.90112,Lusaka,Functional
Â Tiny Tim & Friends Health Centre,1559,Health Centre,Private,-15.3487,28.3567,Lusaka,Functional
Crown Dental Clinic,4245,Dental clinic,Private,-15.453846,28.266216,Lusaka,Functional
Chileshya Rural Health Centre,3033,Health Centre,MOH,-9.019715,31.895079,Northern,Functional
Sansamwenje Health Post,3196,Health Post,MOH,-9.78799,32.74736,Muchinga,Functional
Mwanjawanthu Rural Health Centre,1794,Health Centre,MOH,-14.591661,31.375937,Eastern,Functional
Sanjongo Health Post,2261,Health Post,MOH,-13.076276,22.669166,North-Western,Functional
Ntembo Health Post,3039,Health Post,MOH,-8.934097,31.898917,Northern,Functional
Mulungushi Power Health post,3713,Health Post,MOH,-14.730464,28.844439,Central,Functional
Mapatizya Rural Health Centre,1035,Health Centre,MOH,-17.6935431,26.86411866,Southern,Functional
Mwinuna Rural Health Centre,2014,Health Centre,MOH,-13.860419,27.836332,Copperbelt,Functional
Special Forces Clinic,3536,Health Post,ZDF,-8.885757,31.277183,Northern,Functional
Chisengu Health Post,2168,Health Post,MOH,-13.299644,32.218849,Eastern,Functional
Chawama First Level  Hospital,3898,1st Level Hospital,MOH,-15.4287,28.2898,Lusaka,Functional
Lubinga Health Post,4124,Health Post,MOH,-11.913301,25.684726,North-Western,Functional
Carewell Medical Centre,2381,Health Centre,Private,-12.8251,28.21188,Copperbelt,Functional
Bulambo Health Post,4139,Health Post,MOH,-10.4429,30.142239,Northern,Functional
Shampande Urban Health Centre,1171,Health Centre,MOH,-16.75203291,26.96318918,Southern,Functional
Mansansa Health Post,2286,Health Post,MOH,-13.013764,28.492868,Copperbelt,Functional
Sasu Rural Health Centre,1991,Health Centre,MOH,-13.979674,31.30045,Eastern,Functional
Ndaula Mini Hospital,3669,Health Centre,MOH,-14.320215,31.8889282,Eastern,Functional
Kafinda Health post,3725,Health Post,MOH,-14.131558,29.027576,Central,Functional
Ndeke Urban Health Centre (Ndola),2293,Health Centre,MOH,-13.001883,28.656367,Copperbelt,Functional
Nakonga Clinic,4285,General clinic,Private,-15.483929183107,28.280514375,Lusaka,Functional
Eye-Co Opticians Clinic,4261,Eye clinic,Private,-15.4172654,28.281578,Lusaka,Functional
Chikanji Health Post,2255,Health Post,MOH,-13.078058,22.713919,North-Western,Functional
Chiyumbabeenzu  Health Post,1183,Health Post,MOH,-16.69072167,27.40435,Southern,Functional
Zambia Army  Apollo Rural Health (L85),1641,Health Centre,ZDF,-15.185574,28.065961,Lusaka,Functional
Lwawu Rural Health Center,2666,Health Centre,MOH,-11.623935,24.062011,North-Western,Functional
Jifumpa Rural Health Centre,1993,Health Centre,MOH,-13.967753,26.319746,North-Western,Functional
Naluja Rural Health Centre,1189,Health Centre,MOH,-16.66651282,26.55407544,Southern,Functional
Chibwa Health Post,4247,Health Post,MOH,-11.5255,31.1445,Muchinga,Functional
Mtengo Health Post,3880,Health Post,MOH,-15.5389,28.23451,Lusaka,Functional
Lundu Rural Health Centre,2796,Health Centre,MOH,-10.9923,32.3835,Eastern,Functional
Chamandala Health Post,1921,Health Post,MOH,-14.196895,32.385246,Eastern,Functional
Janeiro Health Post,1605,Health Post,MOH,-15.252985,30.182306,Lusaka,Functional
Ituntu Health Post,3927,Health Post,MOH,-9.6241,32.9214,Muchinga,Functional
Misengo Rural Health Centre,3341,Health Centre,MOH,-9.91287,30.70284,Northern,Functional
Northern Command Military Hospital,2301,1st Level Hospital,ZDF,-12.99124224,28.65381509,Copperbelt,Functional
St Kalemba Rural Health centre,2159,Health Centre,Faith Based,-13.31455,24.28575,North-Western,Functional
Lukolwe RHC,2209,Health Centre,MOH,-13.19568,22.681353,North-Western,Functional
Beatrice Memorial Medical Centre,2383,Health Centre,Private,-12.82032,28.21177,Copperbelt,Functional
Mwamba Rural Health Centre,3357,Health Centre,MOH,-10.10094,31.06143,Northern,Functional
Chikumbi ZNS,4444,Health Post,ZNS,NA,NA,Central,Functional
Chibwe Health Centre,3703,Health Centre,MOH,-14.315959,28.709746,Central,Functional
Dr Yang Surgery,4246,General clinic,Private,-15.4452244,28.3511156,Lusaka,Functional
Odala Medical Centre,4298,General clinic,Private,NA,NA,Lusaka,Functional
Mbala (Chulungoma) Urban Clinic,3533,Health Centre,MOH,-8.864431,31.385244,Northern,Functional
Kayombo Health Centre,3555,Health Centre,MOH,-13.308398,24.070395,North-Western,Functional
Kasunga Health post,4140,Health Post,MOH,30.3554,-10.4633,Northern,Functional
TAZARA Mununga Quarry Clinic,4215,First-aid stations,Private,-12.672333,31.020447,Muchinga,Functional
Mululu,4445,Health Post,MOH,NA,NA,Central,Functional
Muyembe Health POst,4498,Health Post,MOH,-10.10169,30.06146,Northern,Functional
Mwenda Chabe Health Post,3925,Health Post,MOH,-12.84162,30.345184,Muchinga,Functional
Telnor Urban Health Centre,2309,Health Centre,Private,-12.97272466,28.64710372,Copperbelt,Functional
Imwiko Health Post,3519,Health Post,MOH,-15.272172,23.151014,Western,Functional
Kasheke Health Post (Lukulu),3579,Health Post,MOH,-14.1147,23.2316,Western,Functional
Changwe Lungo  Health post,3313,Health Post,MOH,-12.33694,29.16139,Luapula,Functional
Njase Rural Health Centre,1166,Health Centre,MOH,-16.77996255,26.99124618,Southern,Functional
Kamiza Rural Health Centre,2112,Health Centre,MOH,-13.5022,32.062,Eastern,Functional
Nsokolo Rural Health Centre,3018,Health Centre,MOH,-9.16935,31.832681,Northern,Functional
Loloma Hospital Affiliated Health Centre,2140,Health Centre,MOH,-13.39525,24.31496,North-Western,Functional
St. Thomas 1st Level Hospital,4443,1st Level Hospital,Faith Based,NA,NA,Central,Functional
Shivuma Health Post,2201,Health Post,MOH,-13.2102,25.5632,North-Western,Functional
Malama Rural Health Centre,2113,Health Centre,MOH,-13.5014,31.5663,Eastern,Functional
Kashinka Rural Health,3243,Health Post,MOH,-10.44641,30.47559,Northern,Functional
Chibende Health post,3309,Health Post,MOH,-11.56181,29.10833,Luapula,Functional
Kuluzi (Kaseshya) Health Post,3528,Health Post,MOH,-8.690588,31.48384,Northern,Functional
Mwelebi Health Post,3684,Health Post,MOH,-14.880098,27.599729,Central,Functional
Kasoma Lunga Rural Health Center,3460,Health Centre,MOH,-11.41699,30.143098,Luapula,Functional
Kabulamema Health Centre,3496,Health Centre,MOH,-13.850858,24.013441,North-Western,Functional
ZNS Kafue Rural Health Centre,3661,Health Centre,ZNS,-15.6993,28.222,Lusaka,Functional
Namukolo Peri Urban Health Centre,4141,Health Centre,MOH,-10.254673,29.924269,Northern,Functional
Malekani Health Post.,4142,Health Post,MOH,-10.5960398,30.0241903,Northern,Functional
Game Health Post,4464,Health Post,MOH,-16.5297408,28.7250846,Southern,Functional
Mulukuma Health Post,4499,Health Post,MOH,-10.10813,30.30365,Northern,Functional
Namushakende Rural Health Centre,3514,Health Centre,MOH,-15.445298,23.21748,Western,Functional
Kameme Health Post,2402,Health Post,MOH,-12.79832822,28.05824,Copperbelt,Functional
Lubushi Rural Health Centre,3337,Health Centre,MOH,-10.25867,30.46617,Northern,Functional
Mphomwa Rural Health Centre,2133,Health Centre,MOH,-13.418238,32.318517,Eastern,Functional
Nasilimwe Rural Health Centre,1476,Health Centre,MOH,-15.6077,22.9682,Western,Functional
Nkulumazhimba Rural Health Centre,2565,Health Centre,MOH,-12.286652,25.810046,North-Western,Functional
Mumbi Mukulu Health Post,3343,Health Post,MOH,-11.00431,30.77392,Northern,Functional
Ntambu Sachitolu Health Post,2670,Health Post,MOH,-11.565899,24.133667,North-Western,Functional
Amoro Health Post,1534,Health Post,MOH,-15.38494,30.2073,Lusaka,Functional
Sejamba Health Post,1280,Health Post,MOH,-16.3032,25.0039,Western,Functional
Progress Medical Center,2390,1st Level Hospital,Private,-12.80951,28.22521,Copperbelt,Functional
Chishila Health Post,3484,Health Post,MOH,-15.6669386061,26.443673268584998,Southern,Functional
Nkana Health Post,2349,Health Post,MOH,-12.87923,28.09089,Copperbelt,Functional
Defence School of Health Sciences Clinic,4466,Health Centre,ZDF,-15.3823639,28.2779735,Lusaka,Functional
Diamond Dental Surgery Limited,4248,General clinic,Private,-15.428749,28.289802,Lusaka,Functional
Old Lady Clinic,4299,General clinic,Private,NA,NA,Lusaka,Functional
Mwenda Health Post,3955,Health Post,MOH,-13.801880452352,22.842281953125,North-Western,Functional
Katombi Health Post,4122,Health Post,MOH,-13.5711076,24.4411774,North-Western,Functional
Mukopa Health Post,3140,Health Post,MOH,-13.742707,30.163424,Central,Functional
Kabosha Health Post,4500,Health Post,MOH,-9.4819,30.6892,Northern,Functional
Myangaluba Health Post,4501,Health Post,MOH,30.890932,-9.703778,Northern,Functional
Mfungwe Health Post,4143,Health Post,MOH,-10.659786,30.024099,Northern,Functional
Daghamskhoeld Health Post,2317,Health Post,MOH,-12.96912114,28.59667861,Copperbelt,Functional
Lalafuta Health Post,3980,Health Post,MOH,-14.159808,24.878872,North-Western,Functional
Ntambo Health Post,1315,Health Post,MOH,-16.17638581,27.65055419,Southern,Functional
Banamwaze Rural Health Centre,1471,Health Centre,MOH,-15.627004504447,26.580991555542,Southern,Functional
Mtumbata Health Post,1828,Health Post,MOH,-14.458265,31.161183,Eastern,Functional
Mwelushi Health Post,3338,Health Post,MOH,-12.54799,30.292159,Muchinga,Functional
Chikanzaya Rural Health Center,1324,Health Centre,MOH,-16.135567000000002,28.463027,Southern,Functional
Mindolo 1 Urban Health Center,2412,Health Centre,MOH,-12.78605,28.175133,Copperbelt,Functional
Manyinga Mini Hospital,4123,Health Centre,MOH,-13.39732,24.38149,North-Western,Functional
Chine Health Post,4520,Health Post,MOH,NA,NA,Central,Functional
Malambanyama Rural Health Centre,1738,Health Centre,MOH,-14.8625,27.7025,Central,Functional
Chipoka Health Post,3462,Health Post,MOH,-9.092321,31.765027,Northern,Functional
Namabanga Health Post,1592,Health Post,MOH,-15.28093,27.18197,Central,Functional
Chipundu Rural Health Center,4115,Health Centre,MOH,-12.3055,30.301,Central,Functional
Smile Dental Clinic - Rhodespark,4300,Dental clinic,Private,-15.41247,28.304986,Lusaka,Functional
St Dorothy Rural Health Centre,4002,Health Centre,MOH,-12.3422,27.0667,North-Western,Functional
Maheba G Rural Health Centre,3965,Health Centre,MOH,-12.546981,25.888778,North-Western,Functional
Risch Medical Centre,3665,General clinic,Private,-15.428495,28.214517,Lusaka,Functional
John Chikomangombe Health Post,3014,Health Post,MOH,-9.239784,32.062296,Northern,Functional
Vinpiwa Medical Centre,4465,Health Post,Private,NA,NA,Lusaka,Functional
Chisonso Health Post,1868,Health Post,MOH,-14.379806,31.285939,Eastern,Functional
Kamazovu Health Post,3992,Health Post,MOH,-13.012032,24.038018,North-Western,Functional
Kasenga B Health Post,3885,Health Post,MOH,-15.3192,28.43208,Lusaka,Functional
Nachishila Health Post,3698,Health Post,MOH,-16.037042610851,26.068829194336,Southern,Functional
Kabwela Rural Health Centre,2609,Health Centre,MOH,-12.1441607,26.4632636,North-Western,Functional
Kafue Mission Rural Health Centre,1427,Health Centre,Faith Based,-15.8242,28.24112,Lusaka,Functional
Lukupa Rural Health Centre,3365,Health Centre,MOH,-10.12836,31.16508,Northern,Functional
Dola Hill Urban Health Centre,2325,Health Centre,MOH,-12.956417,28.589883,Copperbelt,Functional
Chifuwe South Health Post,3566,Health Post,MOH,-13.68179,24.297579,North-Western,Functional
Sinafala Rural Health Centre,3274,Health Centre,MOH,-16.82522864,27.75039825,Southern,Functional
Chipungu Rural Health Centre,3872,Health Centre,MOH,-8.543545,29.027535,Luapula,Functional
Kankolonkolo Rural Health Centre,2459,Health Centre,MOH,-12.5859,26.011,North-Western,Functional
Simukanka Health Post,1139,Health Post,MOH,-16.97757794,26.86205909,Southern,Functional
Kapufi Health Post,2995,Health Post,MOH,-9.370793,31.772351,Northern,Functional
Macha Mission Hospital,1249,2nd Level Hospital,Faith Based,-16.39207179,26.79035543,Southern,Functional
Itumbwe Health Post,1814,Health Post,MOH,-14.36652,27.15969,Central,Functional
Chalata Rural Health Center,3748,Health Centre,MOH,-13.5508694,29.6831542,Central,Functional
John Howard Discover Health Post,3878,Health Post,MOH,-15.445963,28.293805,Lusaka,Functional
Chibuyu Health Post,4392,Health Post,MOH,-15.621084876016,29.709438691406,Southern,Functional
Kilwa Island Rural Health Center,3011,Health Centre,MOH,-9.2715,28.40812,Luapula,Functional
Siavonga Secondary School Health Post,3589,Health Post,MOH,-16.315477,28.420127,Southern,Functional
Kasanda Urban Health Centre,1831,Health Centre,MOH,-14.4554,28.426,Central,Functional
St. Fidelis (Chilubula) Mission Hospital,3941,1st Level Hospital,Faith Based,-10.00654,30.87493,Northern,Functional
Kalande Health Post,3870,Health Post,MOH,-9.057733,29.112929,Luapula,Functional
Mpande Rural Health Centre,2990,Health Centre,MOH,-9.397233,31.684851,Northern,Functional
Lupongwe Health Post,4468,Health Post,MOH,8.53235968,31.10589512,Northern,Functional
Mutanda Research Rural Health Centre,2513,Health Centre,MOH,-12.390915,26.258845,North-Western,Functional
Nanjuca Rural Health Centre,1463,Health Centre,MOH,-15.6821,23.2341,Western,Functional
Lipaneno Health Post,1113,Health Post,MOH,-17.13549,22.797899,Western,Functional
Kafue East Health Post,1441,Health Post,MOH,-15.764943,28.198023,Lusaka,Functional
